[
  {
    "name":"時代劇場：當代影像的複數演繹",
    "category":"art_events",
    "lat":25.0767234262,
    "lon":121.5247835993,
    "value":1.0
  },
  {
    "name":"麗麗食品",
    "category":"art_events",
    "lat":25.0783760891,
    "lon":121.5256806581,
    "value":1.0
  },
  {
    "name":"靜．物",
    "category":"art_events",
    "lat":25.0759762665,
    "lon":121.5242956757,
    "value":1.0
  },
  {
    "name":"我們總是需要為世界創造出更新的故事",
    "category":"art_events",
    "lat":25.0771400191,
    "lon":121.51820958,
    "value":1.0
  },
  {
    "name":"湖田點",
    "category":"noise",
    "lat":25.169251,
    "lon":121.538867,
    "value":50.0
  },
  {
    "name":"鞍部點",
    "category":"noise",
    "lat":25.182664,
    "lon":121.527797,
    "value":50.0
  },
  {
    "name":"永樂點",
    "category":"noise",
    "lat":25.061281,
    "lon":121.509977,
    "value":50.0
  },
  {
    "name":"關渡點",
    "category":"noise",
    "lat":25.119811,
    "lon":121.472486,
    "value":50.0
  },
  {
    "name":"致遠點",
    "category":"noise",
    "lat":25.114931,
    "lon":121.5125,
    "value":50.0
  },
  {
    "name":"長興點",
    "category":"noise",
    "lat":25.014569,
    "lon":121.5504,
    "value":50.0
  },
  {
    "name":"福星點",
    "category":"noise",
    "lat":25.046691,
    "lon":121.508,
    "value":50.0
  },
  {
    "name":"洲美點",
    "category":"noise",
    "lat":25.108358,
    "lon":121.502,
    "value":50.0
  },
  {
    "name":"社子點",
    "category":"noise",
    "lat":25.103161,
    "lon":121.4881,
    "value":50.0
  },
  {
    "name":"太原點",
    "category":"noise",
    "lat":25.054378,
    "lon":121.5166,
    "value":50.0
  },
  {
    "name":"安康點",
    "category":"noise",
    "lat":25.061601,
    "lon":121.6042,
    "value":50.0
  },
  {
    "name":"北鐵點",
    "category":"noise",
    "lat":25.046842,
    "lon":121.5635,
    "value":50.0
  },
  {
    "name":"格致點",
    "category":"noise",
    "lat":25.143828,
    "lon":121.5489,
    "value":50.0
  },
  {
    "name":"陽金點",
    "category":"noise",
    "lat":25.179506,
    "lon":121.5433,
    "value":50.0
  },
  {
    "name":"至善點",
    "category":"noise",
    "lat":25.106714,
    "lon":121.5575,
    "value":50.0
  },
  {
    "name":"萬興點",
    "category":"noise",
    "lat":24.9897,
    "lon":121.576906,
    "value":50.0
  },
  {
    "name":"舊二點",
    "category":"noise",
    "lat":25.041386,
    "lon":121.6207,
    "value":50.0
  },
  {
    "name":"青年點",
    "category":"noise",
    "lat":25.020467,
    "lon":121.5037,
    "value":50.0
  },
  {
    "name":"民權點",
    "category":"noise",
    "lat":25.0671,
    "lon":121.601142,
    "value":50.0
  },
  {
    "name":"石牌點",
    "category":"noise",
    "lat":25.118428,
    "lon":121.517,
    "value":50.0
  },
  {
    "name":"臺北醫學大學",
    "category":"sports",
    "lat":25.0266,
    "lon":121.5627,
    "value":1.0
  },
  {
    "name":"信義運動中心",
    "category":"sports",
    "lat":25.0318,
    "lon":121.5668,
    "value":1.0
  },
  {
    "name":"World Gym健身俱樂部光復店",
    "category":"sports",
    "lat":25.0411,
    "lon":121.5574,
    "value":1.0
  },
  {
    "name":"博愛國小",
    "category":"sports",
    "lat":25.0364,
    "lon":121.5711,
    "value":1.0
  },
  {
    "name":"GO GYM健身俱樂部永春館",
    "category":"sports",
    "lat":25.0411,
    "lon":121.5763,
    "value":1.0
  },
  {
    "name":"台北市中華基督教青年會永吉會館",
    "category":"sports",
    "lat":25.0452,
    "lon":121.5799,
    "value":1.0
  },
  {
    "name":"世界健身中心民生店",
    "category":"sports",
    "lat":25.0574,
    "lon":121.5476,
    "value":1.0
  },
  {
    "name":"汐游寶寶",
    "category":"sports",
    "lat":25.0514,
    "lon":121.55,
    "value":1.0
  },
  {
    "name":"松山運動中心",
    "category":"sports",
    "lat":25.0489,
    "lon":121.5501,
    "value":1.0
  },
  {
    "name":"松山國小",
    "category":"sports",
    "lat":25.0512,
    "lon":121.5793,
    "value":1.0
  },
  {
    "name":"山豬窟游泳池",
    "category":"sports",
    "lat":25.034,
    "lon":121.6248,
    "value":1.0
  },
  {
    "name":"中央研究院綜合體育館游泳池",
    "category":"sports",
    "lat":25.042,
    "lon":121.6167,
    "value":1.0
  },
  {
    "name":"南港國小",
    "category":"sports",
    "lat":25.0575,
    "lon":121.6104,
    "value":1.0
  },
  {
    "name":"成功高中運動中心",
    "category":"sports",
    "lat":25.0424,
    "lon":121.5238,
    "value":1.0
  },
  {
    "name":"中正運動中心",
    "category":"sports",
    "lat":25.0384,
    "lon":121.5193,
    "value":1.0
  },
  {
    "name":"中正國中",
    "category":"sports",
    "lat":25.0323,
    "lon":121.5221,
    "value":1.0
  },
  {
    "name":"臺北市立大學博愛校區附設泳池",
    "category":"sports",
    "lat":25.0356,
    "lon":121.5136,
    "value":1.0
  },
  {
    "name":"大倉久和大飯店",
    "category":"sports",
    "lat":25.0524,
    "lon":121.5232,
    "value":1.0
  },
  {
    "name":"中山運動中心",
    "category":"sports",
    "lat":25.0548,
    "lon":121.5216,
    "value":1.0
  },
  {
    "name":"榮星公園溫水游泳池",
    "category":"sports",
    "lat":25.0639,
    "lon":121.5376,
    "value":1.0
  },
  {
    "name":"七虎公園",
    "category":"parks",
    "lat":25.136499405,
    "lon":121.50205994,
    "value":1.0
  },
  {
    "name":"七星公園",
    "category":"parks",
    "lat":25.136619568,
    "lon":121.50302124,
    "value":1.0
  },
  {
    "name":"八仙公園",
    "category":"parks",
    "lat":25.120286,
    "lon":121.502916,
    "value":1.0
  },
  {
    "name":"大豐公園",
    "category":"parks",
    "lat":25.131940842,
    "lon":121.50373077,
    "value":1.0
  },
  {
    "name":"中央簡易公園",
    "category":"parks",
    "lat":25.128099442,
    "lon":121.49992371,
    "value":1.0
  },
  {
    "name":"中庸1號公園",
    "category":"parks",
    "lat":25.138040543,
    "lon":121.50124359,
    "value":1.0
  },
  {
    "name":"丹鳳公園",
    "category":"parks",
    "lat":25.126480103,
    "lon":121.5109787,
    "value":1.0
  },
  {
    "name":"公館公園",
    "category":"parks",
    "lat":25.127990723,
    "lon":121.50643158,
    "value":1.0
  },
  {
    "name":"天狗庵遺址",
    "category":"parks",
    "lat":25.135929108,
    "lon":121.50666809,
    "value":1.0
  },
  {
    "name":"文化1號公園",
    "category":"parks",
    "lat":25.136535,
    "lon":121.496462,
    "value":1.0
  },
  {
    "name":"文化2號公園",
    "category":"parks",
    "lat":25.13643074,
    "lon":121.49684143,
    "value":1.0
  },
  {
    "name":"文化3號公園",
    "category":"parks",
    "lat":25.137699127,
    "lon":121.49471283,
    "value":1.0
  },
  {
    "name":"北投258號綠地(承德4號)",
    "category":"parks",
    "lat":25.1019,
    "lon":121.51245,
    "value":1.0
  },
  {
    "name":"北投2號公園",
    "category":"parks",
    "lat":25.13705,
    "lon":121.508221,
    "value":1.0
  },
  {
    "name":"北投公園",
    "category":"parks",
    "lat":25.13656044,
    "lon":121.50473022,
    "value":1.0
  },
  {
    "name":"北投社三層崎公園",
    "category":"parks",
    "lat":25.14574,
    "lon":121.491156,
    "value":1.0
  },
  {
    "name":"石牌公園",
    "category":"parks",
    "lat":25.116359711,
    "lon":121.51036072,
    "value":1.0
  },
  {
    "name":"立農公園",
    "category":"parks",
    "lat":25.118789673,
    "lon":121.50350952,
    "value":1.0
  },
  {
    "name":"吉利公園",
    "category":"parks",
    "lat":25.119010925,
    "lon":121.50836945,
    "value":1.0
  },
  {
    "name":"同德公園",
    "category":"parks",
    "lat":25.125070572,
    "lon":121.52944946,
    "value":1.0
  },
  {
    "name":"地熱谷公園",
    "category":"parks",
    "lat":25.137559891,
    "lon":121.5109787,
    "value":1.0
  },
  {
    "name":"行義公園",
    "category":"parks",
    "lat":25.125389099,
    "lon":121.52523041,
    "value":1.0
  },
  {
    "name":"奇岩1號公園",
    "category":"parks",
    "lat":25.128339,
    "lon":121.503698,
    "value":1.0
  },
  {
    "name":"奇岩二號公園",
    "category":"parks",
    "lat":25.126499176,
    "lon":121.50369263,
    "value":1.0
  },
  {
    "name":"奇岩三號公園",
    "category":"parks",
    "lat":25.125980377,
    "lon":121.50521851,
    "value":1.0
  },
  {
    "name":"東華公園",
    "category":"parks",
    "lat":25.121839523,
    "lon":121.50707245,
    "value":1.0
  },
  {
    "name":"林泉公園",
    "category":"parks",
    "lat":25.14133,
    "lon":121.51482,
    "value":1.0
  },
  {
    "name":"知行公園",
    "category":"parks",
    "lat":25.119729996,
    "lon":121.46665192,
    "value":1.0
  },
  {
    "name":"長安公園",
    "category":"parks",
    "lat":25.135559082,
    "lon":121.50016022,
    "value":1.0
  },
  {
    "name":"前山公園",
    "category":"parks",
    "lat":25.150576524,
    "lon":121.5484437,
    "value":1.0
  },
  {
    "name":"建民公園",
    "category":"parks",
    "lat":25.104744,
    "lon":121.519809,
    "value":1.0
  },
  {
    "name":"泉源47號公園",
    "category":"parks",
    "lat":25.14209938,
    "lon":121.5124588,
    "value":1.0
  },
  {
    "name":"泉源48號公園",
    "category":"parks",
    "lat":25.141939163,
    "lon":121.50715637,
    "value":1.0
  },
  {
    "name":"洲美(公4)公園",
    "category":"parks",
    "lat":25.100089,
    "lon":121.506347,
    "value":1.0
  },
  {
    "name":"洲美蜆仔港公園",
    "category":"parks",
    "lat":25.100997114,
    "lon":121.51118635,
    "value":1.0
  },
  {
    "name":"致遠公園",
    "category":"parks",
    "lat":25.111270905,
    "lon":121.5150528,
    "value":1.0
  },
  {
    "name":"重三公園",
    "category":"parks",
    "lat":25.140159607,
    "lon":121.48928833,
    "value":1.0
  },
  {
    "name":"振華公園",
    "category":"parks",
    "lat":25.115169525,
    "lon":121.51885223,
    "value":1.0
  },
  {
    "name":"振興公園",
    "category":"parks",
    "lat":25.118219376,
    "lon":121.52304077,
    "value":1.0
  },
  {
    "name":"桂花公園",
    "category":"parks",
    "lat":25.137910843,
    "lon":121.51022339,
    "value":1.0
  },
  {
    "name":"桃源公園",
    "category":"parks",
    "lat":25.138069153,
    "lon":121.48275757,
    "value":1.0
  },
  {
    "name":"健行公園",
    "category":"parks",
    "lat":25.121210098,
    "lon":121.50882721,
    "value":1.0
  },
  {
    "name":"崇仰公園",
    "category":"parks",
    "lat":25.12609,
    "lon":121.51106,
    "value":1.0
  },
  {
    "name":"清江1公園",
    "category":"parks",
    "lat":25.123910904,
    "lon":121.50247955,
    "value":1.0
  },
  {
    "name":"清江二公園",
    "category":"parks",
    "lat":25.123680115,
    "lon":121.50189209,
    "value":1.0
  },
  {
    "name":"軟橋公園",
    "category":"parks",
    "lat":25.103102,
    "lon":121.517613,
    "value":1.0
  },
  {
    "name":"復興公園",
    "category":"parks",
    "lat":25.139690399,
    "lon":121.50322723,
    "value":1.0
  },
  {
    "name":"開明公園",
    "category":"parks",
    "lat":25.141130447,
    "lon":121.50531769,
    "value":1.0
  },
  {
    "name":"陽明公園",
    "category":"parks",
    "lat":25.1590167547,
    "lon":121.539011156,
    "value":1.0
  },
  {
    "name":"新興公園",
    "category":"parks",
    "lat":25.13934,
    "lon":121.48703,
    "value":1.0
  },
  {
    "name":"溫泉綠地",
    "category":"parks",
    "lat":25.138933,
    "lon":121.512342,
    "value":1.0
  },
  {
    "name":"聖景一公園",
    "category":"parks",
    "lat":25.12045,
    "lon":121.46351,
    "value":1.0
  },
  {
    "name":"聖景二公園",
    "category":"parks",
    "lat":25.12038,
    "lon":121.46381,
    "value":1.0
  },
  {
    "name":"聖景三公園",
    "category":"parks",
    "lat":25.12046,
    "lon":121.46382,
    "value":1.0
  },
  {
    "name":"榮光公園",
    "category":"parks",
    "lat":25.11472,
    "lon":121.51429,
    "value":1.0
  },
  {
    "name":"榮富公園",
    "category":"parks",
    "lat":25.114229202,
    "lon":121.52472687,
    "value":1.0
  },
  {
    "name":"榮華公園",
    "category":"parks",
    "lat":25.110549927,
    "lon":121.52198792,
    "value":1.0
  },
  {
    "name":"福星(公1)公園",
    "category":"parks",
    "lat":25.108828,
    "lon":121.512326,
    "value":1.0
  },
  {
    "name":"稻中公園",
    "category":"parks",
    "lat":25.138629913,
    "lon":121.4892807,
    "value":1.0
  },
  {
    "name":"稻香公園",
    "category":"parks",
    "lat":25.140949249,
    "lon":121.4885788,
    "value":1.0
  },
  {
    "name":"線形公園(一德里)",
    "category":"parks",
    "lat":25.129796,
    "lon":121.471619,
    "value":1.0
  },
  {
    "name":"線形公園(中央北路3段)",
    "category":"parks",
    "lat":25.13687,
    "lon":121.48244,
    "value":1.0
  },
  {
    "name":"線形公園-芝山明德段",
    "category":"parks",
    "lat":25.112372502,
    "lon":121.517139998,
    "value":1.0
  },
  {
    "name":"學園公園",
    "category":"parks",
    "lat":25.128269196,
    "lon":121.46634674,
    "value":1.0
  },
  {
    "name":"磺港公園",
    "category":"parks",
    "lat":25.130512,
    "lon":121.50446,
    "value":1.0
  },
  {
    "name":"豐年公園",
    "category":"parks",
    "lat":25.136009216,
    "lon":121.49665833,
    "value":1.0
  },
  {
    "name":"關渡公園",
    "category":"parks",
    "lat":25.11973,
    "lon":121.46369,
    "value":1.0
  },
  {
    "name":"觀海公園",
    "category":"parks",
    "lat":25.123580933,
    "lon":121.46344757,
    "value":1.0
  },
  {
    "name":"嗄嘮別公園",
    "category":"parks",
    "lat":25.140350342,
    "lon":121.48442078,
    "value":1.0
  },
  {
    "name":"大業綠地(北投163號)",
    "category":"parks",
    "lat":25.136240005,
    "lon":121.49053955,
    "value":1.0
  },
  {
    "name":"中和綠地",
    "category":"parks",
    "lat":25.141880035,
    "lon":121.49880219,
    "value":1.0
  },
  {
    "name":"天溪綠地",
    "category":"parks",
    "lat":25.13519,
    "lon":121.5301,
    "value":1.0
  },
  {
    "name":"文化綠地",
    "category":"parks",
    "lat":25.137449,
    "lon":121.498406,
    "value":1.0
  },
  {
    "name":"北投106號綠地",
    "category":"parks",
    "lat":25.1110820768,
    "lon":121.5209045457,
    "value":1.0
  },
  {
    "name":"北投120號綠地",
    "category":"parks",
    "lat":25.120132,
    "lon":121.501115,
    "value":1.0
  },
  {
    "name":"北投121號綠地",
    "category":"parks",
    "lat":25.116640091,
    "lon":121.50498962,
    "value":1.0
  },
  {
    "name":"北投122號綠地",
    "category":"parks",
    "lat":25.113069534,
    "lon":121.50892639,
    "value":1.0
  },
  {
    "name":"北投123號綠地",
    "category":"parks",
    "lat":25.117135,
    "lon":121.503849,
    "value":1.0
  },
  {
    "name":"北投124號綠地",
    "category":"parks",
    "lat":25.114865,
    "lon":121.506329,
    "value":1.0
  },
  {
    "name":"北投135號綠地",
    "category":"parks",
    "lat":25.111839294,
    "lon":121.51030731,
    "value":1.0
  },
  {
    "name":"北投138號綠地",
    "category":"parks",
    "lat":25.114419937,
    "lon":121.50273895,
    "value":1.0
  },
  {
    "name":"北投139號綠地",
    "category":"parks",
    "lat":25.115020752,
    "lon":121.50312805,
    "value":1.0
  },
  {
    "name":"北投160號綠地",
    "category":"parks",
    "lat":25.135316,
    "lon":121.496586,
    "value":1.0
  },
  {
    "name":"北投161號綠地 (田心仔綠地)",
    "category":"parks",
    "lat":25.135139465,
    "lon":121.49492645,
    "value":1.0
  },
  {
    "name":"北投164號綠地",
    "category":"parks",
    "lat":25.133449554,
    "lon":121.49597931,
    "value":1.0
  },
  {
    "name":"北投165號綠地",
    "category":"parks",
    "lat":25.131759644,
    "lon":121.49623871,
    "value":1.0
  },
  {
    "name":"北投166號綠地",
    "category":"parks",
    "lat":25.13051033,
    "lon":121.49687195,
    "value":1.0
  },
  {
    "name":"北投167號綠地",
    "category":"parks",
    "lat":25.128405,
    "lon":121.497707,
    "value":1.0
  },
  {
    "name":"北投168號綠地",
    "category":"parks",
    "lat":25.124370575,
    "lon":121.49919128,
    "value":1.0
  },
  {
    "name":"北投169號綠地",
    "category":"parks",
    "lat":25.12072,
    "lon":121.499533,
    "value":1.0
  },
  {
    "name":"北投181號一德綠地",
    "category":"parks",
    "lat":25.123939514,
    "lon":121.46476746,
    "value":1.0
  },
  {
    "name":"北投182號綠地",
    "category":"parks",
    "lat":25.123399734,
    "lon":121.46772766,
    "value":1.0
  },
  {
    "name":"北投183號綠地",
    "category":"parks",
    "lat":25.123010635,
    "lon":121.47186279,
    "value":1.0
  },
  {
    "name":"北投185號綠地",
    "category":"parks",
    "lat":25.123425,
    "lon":121.464987,
    "value":1.0
  },
  {
    "name":"北投186號綠地",
    "category":"parks",
    "lat":25.123029709,
    "lon":121.46652985,
    "value":1.0
  },
  {
    "name":"北投187號綠地",
    "category":"parks",
    "lat":25.122909546,
    "lon":121.46829224,
    "value":1.0
  },
  {
    "name":"北投188號綠地",
    "category":"parks",
    "lat":25.122749329,
    "lon":121.47055817,
    "value":1.0
  },
  {
    "name":"北投191號綠地",
    "category":"parks",
    "lat":25.122489929,
    "lon":121.48084259,
    "value":1.0
  },
  {
    "name":"北投192號綠地",
    "category":"parks",
    "lat":25.122089386,
    "lon":121.48091125,
    "value":1.0
  },
  {
    "name":"北投203號綠地",
    "category":"parks",
    "lat":25.12065,
    "lon":121.5031,
    "value":1.0
  },
  {
    "name":"北投257號綠地(承德3號)",
    "category":"parks",
    "lat":25.10442,
    "lon":121.512199,
    "value":1.0
  },
  {
    "name":"北投39號綠地",
    "category":"parks",
    "lat":25.121984,
    "lon":121.462777,
    "value":1.0
  },
  {
    "name":"北投62號綠地",
    "category":"parks",
    "lat":25.129382,
    "lon":121.503215,
    "value":1.0
  },
  {
    "name":"北投63號綠地",
    "category":"parks",
    "lat":25.127590179,
    "lon":121.50334167,
    "value":1.0
  },
  {
    "name":"北投64號綠地",
    "category":"parks",
    "lat":25.126383,
    "lon":121.503285,
    "value":1.0
  },
  {
    "name":"北投65號綠地",
    "category":"parks",
    "lat":25.124689102,
    "lon":121.50305176,
    "value":1.0
  },
  {
    "name":"北投66號綠地",
    "category":"parks",
    "lat":25.123739243,
    "lon":121.50296021,
    "value":1.0
  },
  {
    "name":"北投69號綠地",
    "category":"parks",
    "lat":25.126020432,
    "lon":121.51203918,
    "value":1.0
  },
  {
    "name":"北投90號綠地",
    "category":"parks",
    "lat":25.118619919,
    "lon":121.52033234,
    "value":1.0
  },
  {
    "name":"北投91號綠地",
    "category":"parks",
    "lat":25.119029999,
    "lon":121.52163696,
    "value":1.0
  },
  {
    "name":"北投92號綠地",
    "category":"parks",
    "lat":25.119260788,
    "lon":121.52227783,
    "value":1.0
  },
  {
    "name":"北投98號綠地",
    "category":"parks",
    "lat":25.115659714,
    "lon":121.51550293,
    "value":1.0
  },
  {
    "name":"永和綠地",
    "category":"parks",
    "lat":25.127910614,
    "lon":121.52793121,
    "value":1.0
  },
  {
    "name":"永欣綠地",
    "category":"parks",
    "lat":25.12384,
    "lon":121.52695,
    "value":1.0
  },
  {
    "name":"安明綠地",
    "category":"parks",
    "lat":25.135616,
    "lon":121.502133,
    "value":1.0
  },
  {
    "name":"奇岩4號綠地",
    "category":"parks",
    "lat":25.126039505,
    "lon":121.50554657,
    "value":1.0
  },
  {
    "name":"忠義公園",
    "category":"parks",
    "lat":25.135019302,
    "lon":121.47792053,
    "value":1.0
  },
  {
    "name":"承仙綠地",
    "category":"parks",
    "lat":25.119680405,
    "lon":121.50263214,
    "value":1.0
  },
  {
    "name":"明德公園",
    "category":"parks",
    "lat":25.10725975,
    "lon":121.52098083,
    "value":1.0
  },
  {
    "name":"林投坑(一)綠地",
    "category":"parks",
    "lat":25.136749268,
    "lon":121.48937225,
    "value":1.0
  },
  {
    "name":"林投坑(二)綠地",
    "category":"parks",
    "lat":25.136510849,
    "lon":121.4890976,
    "value":1.0
  },
  {
    "name":"湖山綠地",
    "category":"parks",
    "lat":25.1517872961,
    "lon":121.5438304285,
    "value":1.0
  },
  {
    "name":"番仔厝綠地",
    "category":"parks",
    "lat":25.134130478,
    "lon":121.49590302,
    "value":1.0
  },
  {
    "name":"磅空頂綠地",
    "category":"parks",
    "lat":25.122980118,
    "lon":121.46507263,
    "value":1.0
  },
  {
    "name":"櫻花崗公園",
    "category":"parks",
    "lat":25.12349,
    "lon":121.52616,
    "value":1.0
  },
  {
    "name":"北投3號廣場",
    "category":"parks",
    "lat":25.131959915,
    "lon":121.49784088,
    "value":1.0
  },
  {
    "name":"41號公園",
    "category":"parks",
    "lat":25.10709,
    "lon":121.5644,
    "value":1.0
  },
  {
    "name":"士林官邸公園",
    "category":"parks",
    "lat":25.094900131,
    "lon":121.53015137,
    "value":1.0
  },
  {
    "name":"山仔后公園",
    "category":"parks",
    "lat":25.1372910255,
    "lon":121.5456354714,
    "value":1.0
  },
  {
    "name":"天母公園",
    "category":"parks",
    "lat":25.1259089,
    "lon":121.530518,
    "value":1.0
  },
  {
    "name":"天和一號公園",
    "category":"parks",
    "lat":25.11844,
    "lon":121.53471,
    "value":1.0
  },
  {
    "name":"天和公園",
    "category":"parks",
    "lat":25.119819641,
    "lon":121.53398895,
    "value":1.0
  },
  {
    "name":"天壽公園",
    "category":"parks",
    "lat":25.1140282,
    "lon":121.5256861,
    "value":1.0
  },
  {
    "name":"天壽綠地",
    "category":"parks",
    "lat":25.1140282,
    "lon":121.5256861,
    "value":1.0
  },
  {
    "name":"天壽綠地",
    "category":"parks",
    "lat":25.1140282,
    "lon":121.5256861,
    "value":1.0
  },
  {
    "name":"天福2號公園",
    "category":"parks",
    "lat":25.117090225,
    "lon":121.53160858,
    "value":1.0
  },
  {
    "name":"外雙溪公園",
    "category":"parks",
    "lat":25.101270676,
    "lon":121.55239105,
    "value":1.0
  },
  {
    "name":"仰德一號公園",
    "category":"parks",
    "lat":25.100070953,
    "lon":121.53778076,
    "value":1.0
  },
  {
    "name":"仰德二號公園",
    "category":"parks",
    "lat":25.099990845,
    "lon":121.53827667,
    "value":1.0
  },
  {
    "name":"名山公園",
    "category":"parks",
    "lat":25.101549149,
    "lon":121.53237152,
    "value":1.0
  },
  {
    "name":"至善公園",
    "category":"parks",
    "lat":25.098190308,
    "lon":121.53829193,
    "value":1.0
  },
  {
    "name":"至誠公園",
    "category":"parks",
    "lat":25.101089478,
    "lon":121.53668213,
    "value":1.0
  },
  {
    "name":"至德園公園",
    "category":"parks",
    "lat":25.098400116,
    "lon":121.54640198,
    "value":1.0
  },
  {
    "name":"住六(公一)公園",
    "category":"parks",
    "lat":25.1369139631,
    "lon":121.5594925005,
    "value":1.0
  },
  {
    "name":"住六(公二)公園",
    "category":"parks",
    "lat":25.1376053522,
    "lon":121.5576499443,
    "value":1.0
  },
  {
    "name":"克強公園",
    "category":"parks",
    "lat":25.107985964,
    "lon":121.521967,
    "value":1.0
  },
  {
    "name":"志成公園",
    "category":"parks",
    "lat":25.09669,
    "lon":121.53086,
    "value":1.0
  },
  {
    "name":"忠誠公園",
    "category":"parks",
    "lat":25.103420258,
    "lon":121.52574158,
    "value":1.0
  },
  {
    "name":"承德公園",
    "category":"parks",
    "lat":25.089660645,
    "lon":121.52198029,
    "value":1.0
  },
  {
    "name":"明勝公園",
    "category":"parks",
    "lat":25.079968,
    "lon":121.519187,
    "value":1.0
  },
  {
    "name":"東和公園",
    "category":"parks",
    "lat":25.1226002,
    "lon":121.5336861,
    "value":1.0
  },
  {
    "name":"社子公園",
    "category":"parks",
    "lat":25.090370178,
    "lon":121.50602722,
    "value":1.0
  },
  {
    "name":"社子島福安里堤防綠地",
    "category":"parks",
    "lat":25.09814157,
    "lon":121.4964373417,
    "value":1.0
  },
  {
    "name":"社正公園",
    "category":"parks",
    "lat":25.087499619,
    "lon":121.51042175,
    "value":1.0
  },
  {
    "name":"芝山公園",
    "category":"parks",
    "lat":25.102369308,
    "lon":121.53177643,
    "value":1.0
  },
  {
    "name":"花卉試驗中心",
    "category":"parks",
    "lat":25.1350154328,
    "lon":121.5444106431,
    "value":1.0
  },
  {
    "name":"前港公園",
    "category":"parks",
    "lat":25.0860629,
    "lon":121.5201556,
    "value":1.0
  },
  {
    "name":"後港公園",
    "category":"parks",
    "lat":25.093237,
    "lon":121.514454,
    "value":1.0
  },
  {
    "name":"美崙公園",
    "category":"parks",
    "lat":25.097379684,
    "lon":121.51721954,
    "value":1.0
  },
  {
    "name":"原住民文化主題公園",
    "category":"parks",
    "lat":25.101570129,
    "lon":121.55075073,
    "value":1.0
  },
  {
    "name":"海光公園",
    "category":"parks",
    "lat":25.081850052,
    "lon":121.50788116,
    "value":1.0
  },
  {
    "name":"基河公園",
    "category":"parks",
    "lat":25.080039978,
    "lon":121.52401733,
    "value":1.0
  },
  {
    "name":"基隆河沖洗溝加蓋綠地",
    "category":"parks",
    "lat":25.084049225,
    "lon":121.52316284,
    "value":1.0
  },
  {
    "name":"華聲公園",
    "category":"parks",
    "lat":25.095979691,
    "lon":121.52249146,
    "value":1.0
  },
  {
    "name":"華齡公園",
    "category":"parks",
    "lat":25.084049225,
    "lon":121.52316284,
    "value":1.0
  },
  {
    "name":"新佳公園",
    "category":"parks",
    "lat":25.098630905,
    "lon":121.5194931,
    "value":1.0
  },
  {
    "name":"福中公園",
    "category":"parks",
    "lat":25.087919235,
    "lon":121.51883698,
    "value":1.0
  },
  {
    "name":"福志公園",
    "category":"parks",
    "lat":25.099050522,
    "lon":121.53405762,
    "value":1.0
  },
  {
    "name":"福林公園",
    "category":"parks",
    "lat":25.0958004,
    "lon":121.52947235,
    "value":1.0
  },
  {
    "name":"福華公園",
    "category":"parks",
    "lat":25.0821799,
    "lon":121.5189218,
    "value":1.0
  },
  {
    "name":"福順公園",
    "category":"parks",
    "lat":25.082349777,
    "lon":121.51113129,
    "value":1.0
  },
  {
    "name":"翠山公園",
    "category":"parks",
    "lat":25.10845,
    "lon":121.56995,
    "value":1.0
  },
  {
    "name":"德仁公園",
    "category":"parks",
    "lat":25.102659225,
    "lon":121.52146149,
    "value":1.0
  },
  {
    "name":"德行公園",
    "category":"parks",
    "lat":25.105110168,
    "lon":121.52365112,
    "value":1.0
  },
  {
    "name":"線形公園-前街",
    "category":"parks",
    "lat":25.097214,
    "lon":121.524831,
    "value":1.0
  },
  {
    "name":"線形公園-後街",
    "category":"parks",
    "lat":25.097214,
    "lon":121.524831,
    "value":1.0
  },
  {
    "name":"線形公園-劍潭",
    "category":"parks",
    "lat":25.079087,
    "lon":121.523387,
    "value":1.0
  },
  {
    "name":"衛理兒童遊戲場",
    "category":"parks",
    "lat":25.102329254,
    "lon":121.55330658,
    "value":1.0
  },
  {
    "name":"磺溪公園",
    "category":"parks",
    "lat":25.104879379,
    "lon":121.52062988,
    "value":1.0
  },
  {
    "name":"雙溪公園",
    "category":"parks",
    "lat":25.098039627,
    "lon":121.53591919,
    "value":1.0
  },
  {
    "name":"雙溪濕地公園",
    "category":"parks",
    "lat":25.096977,
    "lon":121.511988,
    "value":1.0
  },
  {
    "name":"蘭雅1號公園",
    "category":"parks",
    "lat":25.1099324,
    "lon":121.5291121,
    "value":1.0
  },
  {
    "name":"蘭雅公園",
    "category":"parks",
    "lat":25.109744,
    "lon":121.529919,
    "value":1.0
  },
  {
    "name":"蘭興公園",
    "category":"parks",
    "lat":25.111029,
    "lon":121.525193,
    "value":1.0
  },
  {
    "name":"209號綠地",
    "category":"parks",
    "lat":25.092599869,
    "lon":121.52806854,
    "value":1.0
  },
  {
    "name":"士林116號綠地",
    "category":"parks",
    "lat":25.096460342,
    "lon":121.51360321,
    "value":1.0
  },
  {
    "name":"士林117號綠地",
    "category":"parks",
    "lat":25.09703064,
    "lon":121.51390076,
    "value":1.0
  },
  {
    "name":"士林118號綠地",
    "category":"parks",
    "lat":25.093179703,
    "lon":121.51946259,
    "value":1.0
  },
  {
    "name":"士林120號綠地",
    "category":"parks",
    "lat":25.09305954,
    "lon":121.52044678,
    "value":1.0
  },
  {
    "name":"士林121號綠地",
    "category":"parks",
    "lat":25.092269897,
    "lon":121.51580811,
    "value":1.0
  },
  {
    "name":"士林128號綠地",
    "category":"parks",
    "lat":25.084669113,
    "lon":121.5223465,
    "value":1.0
  },
  {
    "name":"士林130號綠地",
    "category":"parks",
    "lat":25.089599609,
    "lon":121.50258636,
    "value":1.0
  },
  {
    "name":"士林131號綠地",
    "category":"parks",
    "lat":25.090789795,
    "lon":121.50559235,
    "value":1.0
  },
  {
    "name":"士林132號綠地",
    "category":"parks",
    "lat":25.090660095,
    "lon":121.50682068,
    "value":1.0
  },
  {
    "name":"士林136號綠地",
    "category":"parks",
    "lat":25.086910248,
    "lon":121.51091003,
    "value":1.0
  },
  {
    "name":"士林139號綠地",
    "category":"parks",
    "lat":25.084869385,
    "lon":121.50940704,
    "value":1.0
  },
  {
    "name":"士林151號綠地",
    "category":"parks",
    "lat":25.095760345,
    "lon":121.54843903,
    "value":1.0
  },
  {
    "name":"士林156號綠地",
    "category":"parks",
    "lat":25.103392,
    "lon":121.554827,
    "value":1.0
  },
  {
    "name":"士林173號綠地 (蘭興1號綠地)",
    "category":"parks",
    "lat":25.112800598,
    "lon":121.52619934,
    "value":1.0
  },
  {
    "name":"士林179號綠地",
    "category":"parks",
    "lat":25.104330063,
    "lon":121.52942657,
    "value":1.0
  },
  {
    "name":"士林197號綠地",
    "category":"parks",
    "lat":25.136188,
    "lon":121.558964,
    "value":1.0
  },
  {
    "name":"士林198號綠地",
    "category":"parks",
    "lat":25.141013,
    "lon":121.55392,
    "value":1.0
  },
  {
    "name":"士林199號綠地",
    "category":"parks",
    "lat":25.140520096,
    "lon":121.55845642,
    "value":1.0
  },
  {
    "name":"士林200號綠地",
    "category":"parks",
    "lat":25.136980057,
    "lon":121.5616684,
    "value":1.0
  },
  {
    "name":"士林201號綠地",
    "category":"parks",
    "lat":25.133640289,
    "lon":121.56066895,
    "value":1.0
  },
  {
    "name":"士林206綠地(番仔田綠地)",
    "category":"parks",
    "lat":25.097959518,
    "lon":121.54802704,
    "value":1.0
  },
  {
    "name":"士林207綠地(番仔田小綠地)",
    "category":"parks",
    "lat":25.096759796,
    "lon":121.54839325,
    "value":1.0
  },
  {
    "name":"士林208號綠地",
    "category":"parks",
    "lat":25.097330093,
    "lon":121.5337677,
    "value":1.0
  },
  {
    "name":"士林4號綠地",
    "category":"parks",
    "lat":25.136880875,
    "lon":121.54627228,
    "value":1.0
  },
  {
    "name":"士林68號綠地",
    "category":"parks",
    "lat":25.099069595,
    "lon":121.53643036,
    "value":1.0
  },
  {
    "name":"士林73號綠地 (天美綠地)",
    "category":"parks",
    "lat":25.121599197,
    "lon":121.52597046,
    "value":1.0
  },
  {
    "name":"士林75號綠地",
    "category":"parks",
    "lat":25.123203,
    "lon":121.529441,
    "value":1.0
  },
  {
    "name":"士林76號綠地",
    "category":"parks",
    "lat":25.124725,
    "lon":121.532776,
    "value":1.0
  },
  {
    "name":"士林79號綠地",
    "category":"parks",
    "lat":25.115579605,
    "lon":121.52677917,
    "value":1.0
  },
  {
    "name":"士林80天壽二號",
    "category":"parks",
    "lat":25.113260269,
    "lon":121.52642059,
    "value":1.0
  },
  {
    "name":"士林89號綠地",
    "category":"parks",
    "lat":25.105770111,
    "lon":121.52893066,
    "value":1.0
  },
  {
    "name":"天福綠地",
    "category":"parks",
    "lat":25.116750717,
    "lon":121.532547,
    "value":1.0
  },
  {
    "name":"永倫綠地",
    "category":"parks",
    "lat":25.091520309,
    "lon":121.50052643,
    "value":1.0
  },
  {
    "name":"至臨綠地",
    "category":"parks",
    "lat":25.104290009,
    "lon":121.55560303,
    "value":1.0
  },
  {
    "name":"東吳綠地",
    "category":"parks",
    "lat":25.096580505,
    "lon":121.5427475,
    "value":1.0
  },
  {
    "name":"添壽一號綠地",
    "category":"parks",
    "lat":25.116739273,
    "lon":121.52690125,
    "value":1.0
  },
  {
    "name":"聖山綠地",
    "category":"parks",
    "lat":25.106830597,
    "lon":121.53234863,
    "value":1.0
  },
  {
    "name":"福文公園",
    "category":"parks",
    "lat":25.090650558,
    "lon":121.52722931,
    "value":1.0
  },
  {
    "name":"士林3號廣場",
    "category":"parks",
    "lat":25.104530334,
    "lon":121.52461243,
    "value":1.0
  },
  {
    "name":"士林4號廣場",
    "category":"parks",
    "lat":25.096050262,
    "lon":121.53199005,
    "value":1.0
  },
  {
    "name":"天母廣場",
    "category":"parks",
    "lat":25.118749619,
    "lon":121.5300827,
    "value":1.0
  },
  {
    "name":"天生廣場",
    "category":"parks",
    "lat":25.126190186,
    "lon":121.53125,
    "value":1.0
  },
  {
    "name":"一江公園",
    "category":"parks",
    "lat":25.053279877,
    "lon":121.53125763,
    "value":1.0
  },
  {
    "name":"八二三砲戰紀念公園",
    "category":"parks",
    "lat":25.076799393,
    "lon":121.52677155,
    "value":1.0
  },
  {
    "name":"力行三號公園",
    "category":"parks",
    "lat":25.085430145,
    "lon":121.53668976,
    "value":1.0
  },
  {
    "name":"下埤公園",
    "category":"parks",
    "lat":25.06701088,
    "lon":121.5422821,
    "value":1.0
  },
  {
    "name":"下塔悠公園",
    "category":"parks",
    "lat":25.076929092,
    "lon":121.55956268,
    "value":1.0
  },
  {
    "name":"上塔悠公園",
    "category":"parks",
    "lat":25.077510834,
    "lon":121.55200195,
    "value":1.0
  },
  {
    "name":"大佳社區公園",
    "category":"parks",
    "lat":25.072750092,
    "lon":121.53765869,
    "value":1.0
  },
  {
    "name":"大直公園",
    "category":"parks",
    "lat":25.082710266,
    "lon":121.54727936,
    "value":1.0
  },
  {
    "name":"中427公園",
    "category":"parks",
    "lat":25.080329895,
    "lon":121.55599213,
    "value":1.0
  },
  {
    "name":"中428公園",
    "category":"parks",
    "lat":25.078447,
    "lon":121.553485,
    "value":1.0
  },
  {
    "name":"中429公園",
    "category":"parks",
    "lat":25.078469,
    "lon":121.555858,
    "value":1.0
  },
  {
    "name":"中430公園",
    "category":"parks",
    "lat":25.078290939,
    "lon":121.56208038,
    "value":1.0
  },
  {
    "name":"中431公園",
    "category":"parks",
    "lat":25.077400208,
    "lon":121.56520844,
    "value":1.0
  },
  {
    "name":"中山21號廣場",
    "category":"parks",
    "lat":25.080799103,
    "lon":121.55628204,
    "value":1.0
  },
  {
    "name":"中吉公園",
    "category":"parks",
    "lat":25.056360245,
    "lon":121.53183746,
    "value":1.0
  },
  {
    "name":"中安公園 ",
    "category":"parks",
    "lat":25.056489944,
    "lon":121.52398682,
    "value":1.0
  },
  {
    "name":"中原公園",
    "category":"parks",
    "lat":25.055810928,
    "lon":121.52858734,
    "value":1.0
  },
  {
    "name":"仁德公園",
    "category":"parks",
    "lat":25.053180695,
    "lon":121.52908325,
    "value":1.0
  },
  {
    "name":"四平公園",
    "category":"parks",
    "lat":25.053230286,
    "lon":121.53450775,
    "value":1.0
  },
  {
    "name":"正守公園",
    "category":"parks",
    "lat":25.048051,
    "lon":121.528745,
    "value":1.0
  },
  {
    "name":"民享公園",
    "category":"parks",
    "lat":25.059230804,
    "lon":121.52111053,
    "value":1.0
  },
  {
    "name":"永安公園",
    "category":"parks",
    "lat":25.079120636,
    "lon":121.54521179,
    "value":1.0
  },
  {
    "name":"永直公園",
    "category":"parks",
    "lat":25.08147049,
    "lon":121.55052948,
    "value":1.0
  },
  {
    "name":"永靜公園",
    "category":"parks",
    "lat":25.061559677,
    "lon":121.52178192,
    "value":1.0
  },
  {
    "name":"伊通公園",
    "category":"parks",
    "lat":25.050159454,
    "lon":121.53476715,
    "value":1.0
  },
  {
    "name":"吉林公園",
    "category":"parks",
    "lat":25.050825119,
    "lon":121.52893066,
    "value":1.0
  },
  {
    "name":"合江公園",
    "category":"parks",
    "lat":25.058660507,
    "lon":121.53948212,
    "value":1.0
  },
  {
    "name":"朱昌公園",
    "category":"parks",
    "lat":25.055459976,
    "lon":121.53881836,
    "value":1.0
  },
  {
    "name":"朱厝崙公園",
    "category":"parks",
    "lat":25.047550201,
    "lon":121.5410614,
    "value":1.0
  },
  {
    "name":"朱崙公園",
    "category":"parks",
    "lat":25.049339294,
    "lon":121.54168701,
    "value":1.0
  },
  {
    "name":"江寧公園",
    "category":"parks",
    "lat":25.061229706,
    "lon":121.53941345,
    "value":1.0
  },
  {
    "name":"自強公園",
    "category":"parks",
    "lat":25.086019,
    "lon":121.548603,
    "value":1.0
  },
  {
    "name":"明水公園",
    "category":"parks",
    "lat":25.078819275,
    "lon":121.54805756,
    "value":1.0
  },
  {
    "name":"林森公園",
    "category":"parks",
    "lat":25.052339554,
    "lon":121.52587128,
    "value":1.0
  },
  {
    "name":"松江公園",
    "category":"parks",
    "lat":25.050369263,
    "lon":121.53246307,
    "value":1.0
  },
  {
    "name":"松錦1號公園",
    "category":"parks",
    "lat":25.060117,
    "lon":121.532404,
    "value":1.0
  },
  {
    "name":"松錦2號公園",
    "category":"parks",
    "lat":25.059608,
    "lon":121.532089,
    "value":1.0
  },
  {
    "name":"直安公園",
    "category":"parks",
    "lat":25.081199646,
    "lon":121.54785156,
    "value":1.0
  },
  {
    "name":"花博公園美術園區",
    "category":"parks",
    "lat":25.07060051,
    "lon":121.5239563,
    "value":1.0
  },
  {
    "name":"花博公園圓山園區",
    "category":"parks",
    "lat":25.071569443,
    "lon":121.52062225,
    "value":1.0
  },
  {
    "name":"花博公園新生園區",
    "category":"parks",
    "lat":25.068569183,
    "lon":121.53050232,
    "value":1.0
  },
  {
    "name":"金泰公園",
    "category":"parks",
    "lat":25.076495,
    "lon":121.565167,
    "value":1.0
  },
  {
    "name":"建興公園",
    "category":"parks",
    "lat":25.047149658,
    "lon":121.53817749,
    "value":1.0
  },
  {
    "name":"培英公園",
    "category":"parks",
    "lat":25.082269669,
    "lon":121.54498291,
    "value":1.0
  },
  {
    "name":"康樂公園",
    "category":"parks",
    "lat":25.053409576,
    "lon":121.52514648,
    "value":1.0
  },
  {
    "name":"復華公園",
    "category":"parks",
    "lat":25.053129196,
    "lon":121.53968048,
    "value":1.0
  },
  {
    "name":"晴光公園",
    "category":"parks",
    "lat":25.063899994,
    "lon":121.52456665,
    "value":1.0
  },
  {
    "name":"華山公園",
    "category":"parks",
    "lat":25.047745,
    "lon":121.525861,
    "value":1.0
  },
  {
    "name":"進安公園",
    "category":"parks",
    "lat":25.045869827,
    "lon":121.53746796,
    "value":1.0
  },
  {
    "name":"集英公園",
    "category":"parks",
    "lat":25.065402,
    "lon":121.521344,
    "value":1.0
  },
  {
    "name":"圓山自然景觀公園",
    "category":"parks",
    "lat":25.075055,
    "lon":121.52233,
    "value":1.0
  },
  {
    "name":"敬業公園",
    "category":"parks",
    "lat":25.085728,
    "lon":121.556045,
    "value":1.0
  },
  {
    "name":"新喜公園",
    "category":"parks",
    "lat":25.065429688,
    "lon":121.53218842,
    "value":1.0
  },
  {
    "name":"新祿公園",
    "category":"parks",
    "lat":25.067159653,
    "lon":121.52964783,
    "value":1.0
  },
  {
    "name":"新壽公園",
    "category":"parks",
    "lat":25.063310623,
    "lon":121.52992249,
    "value":1.0
  },
  {
    "name":"新興公園",
    "category":"parks",
    "lat":25.061519623,
    "lon":121.52465057,
    "value":1.0
  },
  {
    "name":"農安公園",
    "category":"parks",
    "lat":25.065280914,
    "lon":121.53526306,
    "value":1.0
  },
  {
    "name":"榮星花園公園",
    "category":"parks",
    "lat":25.062650681,
    "lon":121.54049683,
    "value":1.0
  },
  {
    "name":"聚葉公園",
    "category":"parks",
    "lat":25.060496,
    "lon":121.527236,
    "value":1.0
  },
  {
    "name":"劍潭公園",
    "category":"parks",
    "lat":25.080108,
    "lon":121.524598,
    "value":1.0
  },
  {
    "name":"德惠公園",
    "category":"parks",
    "lat":25.067489624,
    "lon":121.53156281,
    "value":1.0
  },
  {
    "name":"撫順公園",
    "category":"parks",
    "lat":25.064579,
    "lon":121.52199,
    "value":1.0
  },
  {
    "name":"興安公園",
    "category":"parks",
    "lat":25.055679321,
    "lon":121.54177856,
    "value":1.0
  },
  {
    "name":"興亞公園",
    "category":"parks",
    "lat":25.047380447,
    "lon":121.53160095,
    "value":1.0
  },
  {
    "name":"興國公園",
    "category":"parks",
    "lat":25.0531,
    "lon":121.541941,
    "value":1.0
  },
  {
    "name":"遼寧公園",
    "category":"parks",
    "lat":25.053600311,
    "lon":121.54231262,
    "value":1.0
  },
  {
    "name":"錦北公園",
    "category":"parks",
    "lat":25.060489655,
    "lon":121.53582764,
    "value":1.0
  },
  {
    "name":"錦州公園",
    "category":"parks",
    "lat":25.060619354,
    "lon":121.52931976,
    "value":1.0
  },
  {
    "name":"龍江公園",
    "category":"parks",
    "lat":25.059820175,
    "lon":121.54216003,
    "value":1.0
  },
  {
    "name":"雙城公園",
    "category":"parks",
    "lat":25.067310333,
    "lon":121.52401733,
    "value":1.0
  },
  {
    "name":"力行1號綠地",
    "category":"parks",
    "lat":25.084100723,
    "lon":121.53887177,
    "value":1.0
  },
  {
    "name":"力行2號綠地",
    "category":"parks",
    "lat":25.083349228,
    "lon":121.53793335,
    "value":1.0
  },
  {
    "name":"中山129號綠地",
    "category":"parks",
    "lat":25.053720474,
    "lon":121.53967285,
    "value":1.0
  },
  {
    "name":"中山161號綠地",
    "category":"parks",
    "lat":25.078069687,
    "lon":121.53315735,
    "value":1.0
  },
  {
    "name":"中山240號綠地",
    "category":"parks",
    "lat":25.086969376,
    "lon":121.54959869,
    "value":1.0
  },
  {
    "name":"中山381號綠地",
    "category":"parks",
    "lat":25.07959938,
    "lon":121.54720306,
    "value":1.0
  },
  {
    "name":"中山411號綠地",
    "category":"parks",
    "lat":25.0832901,
    "lon":121.55644989,
    "value":1.0
  },
  {
    "name":"中山412號綠地",
    "category":"parks",
    "lat":25.082300186,
    "lon":121.55645752,
    "value":1.0
  },
  {
    "name":"中山413號綠地",
    "category":"parks",
    "lat":25.083320618,
    "lon":121.55619812,
    "value":1.0
  },
  {
    "name":"中山414號綠地",
    "category":"parks",
    "lat":25.081260681,
    "lon":121.5561676,
    "value":1.0
  },
  {
    "name":"中山415號綠地",
    "category":"parks",
    "lat":25.080120087,
    "lon":121.55262756,
    "value":1.0
  },
  {
    "name":"中山416號綠地",
    "category":"parks",
    "lat":25.080070496,
    "lon":121.55377197,
    "value":1.0
  },
  {
    "name":"中山417號綠地",
    "category":"parks",
    "lat":25.080070496,
    "lon":121.5552597,
    "value":1.0
  },
  {
    "name":"中山418號綠地",
    "category":"parks",
    "lat":25.080059052,
    "lon":121.55737305,
    "value":1.0
  },
  {
    "name":"中山419號綠地",
    "category":"parks",
    "lat":25.080039978,
    "lon":121.55934143,
    "value":1.0
  },
  {
    "name":"中山420號綠地",
    "category":"parks",
    "lat":25.080049515,
    "lon":121.56099701,
    "value":1.0
  },
  {
    "name":"中山421號綠地",
    "category":"parks",
    "lat":25.080379486,
    "lon":121.56217194,
    "value":1.0
  },
  {
    "name":"中山422號綠地",
    "category":"parks",
    "lat":25.079860687,
    "lon":121.552742,
    "value":1.0
  },
  {
    "name":"中山423號綠地",
    "category":"parks",
    "lat":25.079839706,
    "lon":121.55380249,
    "value":1.0
  },
  {
    "name":"中山424號綠地",
    "category":"parks",
    "lat":25.079839706,
    "lon":121.55491638,
    "value":1.0
  },
  {
    "name":"中山425號綠地",
    "category":"parks",
    "lat":25.079839706,
    "lon":121.55581665,
    "value":1.0
  },
  {
    "name":"中山426號綠地",
    "category":"parks",
    "lat":25.08011055,
    "lon":121.56221771,
    "value":1.0
  },
  {
    "name":"長春綠地",
    "category":"parks",
    "lat":25.052900314,
    "lon":121.53800964,
    "value":1.0
  },
  {
    "name":"中山4號廣場",
    "category":"parks",
    "lat":25.052610397,
    "lon":121.52052307,
    "value":1.0
  },
  {
    "name":"九華公園",
    "category":"parks",
    "lat":25.088590622,
    "lon":121.56137848,
    "value":1.0
  },
  {
    "name":"下灣公園",
    "category":"parks",
    "lat":25.066810608,
    "lon":121.59069824,
    "value":1.0
  },
  {
    "name":"上灣公園",
    "category":"parks",
    "lat":25.065460205,
    "lon":121.59584045,
    "value":1.0
  },
  {
    "name":"口湖公園",
    "category":"parks",
    "lat":25.067328,
    "lon":121.598514,
    "value":1.0
  },
  {
    "name":"大坑公園",
    "category":"parks",
    "lat":25.069037,
    "lon":121.598706,
    "value":1.0
  },
  {
    "name":"大港墘公園",
    "category":"parks",
    "lat":25.0774149,
    "lon":121.5729968,
    "value":1.0
  },
  {
    "name":"大湖公園",
    "category":"parks",
    "lat":25.082976,
    "lon":121.602695,
    "value":1.0
  },
  {
    "name":"山腳公園",
    "category":"parks",
    "lat":25.084089279,
    "lon":121.57990265,
    "value":1.0
  },
  {
    "name":"五分公園",
    "category":"parks",
    "lat":25.067119598,
    "lon":121.61479187,
    "value":1.0
  },
  {
    "name":"內湖125號公園",
    "category":"parks",
    "lat":25.064699173,
    "lon":121.61125946,
    "value":1.0
  },
  {
    "name":"文心公園",
    "category":"parks",
    "lat":25.065450668,
    "lon":121.58418274,
    "value":1.0
  },
  {
    "name":"文湖公園",
    "category":"parks",
    "lat":25.087427,
    "lon":121.560993,
    "value":1.0
  },
  {
    "name":"文德3號公園",
    "category":"parks",
    "lat":25.075090408,
    "lon":121.57711792,
    "value":1.0
  },
  {
    "name":"文德二號公園",
    "category":"parks",
    "lat":25.077859879,
    "lon":121.58374023,
    "value":1.0
  },
  {
    "name":"仙樹公園",
    "category":"parks",
    "lat":25.085609436,
    "lon":121.56900024,
    "value":1.0
  },
  {
    "name":"北勢湖公園",
    "category":"parks",
    "lat":25.083749771,
    "lon":121.56168365,
    "value":1.0
  },
  {
    "name":"安泰公園",
    "category":"parks",
    "lat":25.07408905,
    "lon":121.61863708,
    "value":1.0
  },
  {
    "name":"安康公園(下)",
    "category":"parks",
    "lat":25.067209244,
    "lon":121.61061859,
    "value":1.0
  },
  {
    "name":"安康公園(上)",
    "category":"parks",
    "lat":25.067129135,
    "lon":121.61238098,
    "value":1.0
  },
  {
    "name":"安湖三號公園",
    "category":"parks",
    "lat":25.070419312,
    "lon":121.61569214,
    "value":1.0
  },
  {
    "name":"安湖公園",
    "category":"parks",
    "lat":25.074020386,
    "lon":121.61541748,
    "value":1.0
  },
  {
    "name":"成功公園",
    "category":"parks",
    "lat":25.084299088,
    "lon":121.59662628,
    "value":1.0
  },
  {
    "name":"行善公園",
    "category":"parks",
    "lat":25.053260803,
    "lon":121.57557678,
    "value":1.0
  },
  {
    "name":"西安公園",
    "category":"parks",
    "lat":25.087450027,
    "lon":121.56748199,
    "value":1.0
  },
  {
    "name":"西安廣場",
    "category":"parks",
    "lat":25.086759567,
    "lon":121.56085205,
    "value":1.0
  },
  {
    "name":"西康二號公園",
    "category":"parks",
    "lat":25.084980011,
    "lon":121.5639267,
    "value":1.0
  },
  {
    "name":"西康公園",
    "category":"parks",
    "lat":25.083120346,
    "lon":121.56439209,
    "value":1.0
  },
  {
    "name":"西湖公園",
    "category":"parks",
    "lat":25.083610535,
    "lon":121.57038879,
    "value":1.0
  },
  {
    "name":"扶輪親恩公園",
    "category":"parks",
    "lat":25.066709518,
    "lon":121.57975006,
    "value":1.0
  },
  {
    "name":"明美公園",
    "category":"parks",
    "lat":25.06221962,
    "lon":121.5861969,
    "value":1.0
  },
  {
    "name":"東湖一號公園",
    "category":"parks",
    "lat":25.07559967,
    "lon":121.61213684,
    "value":1.0
  },
  {
    "name":"東湖二號公園",
    "category":"parks",
    "lat":25.073890686,
    "lon":121.61092377,
    "value":1.0
  },
  {
    "name":"東湖四號公園",
    "category":"parks",
    "lat":25.070449829,
    "lon":121.61808014,
    "value":1.0
  },
  {
    "name":"金瑞公園",
    "category":"parks",
    "lat":25.08795929,
    "lon":121.58795166,
    "value":1.0
  },
  {
    "name":"金龍公園",
    "category":"parks",
    "lat":25.08543218,
    "lon":121.59079901,
    "value":1.0
  },
  {
    "name":"長青公園",
    "category":"parks",
    "lat":25.080980301,
    "lon":121.58174133,
    "value":1.0
  },
  {
    "name":"南湖一號公園",
    "category":"parks",
    "lat":25.069139481,
    "lon":121.61109161,
    "value":1.0
  },
  {
    "name":"洲子1號公園",
    "category":"parks",
    "lat":25.07957077,
    "lon":121.56433868,
    "value":1.0
  },
  {
    "name":"洲子2號公園",
    "category":"parks",
    "lat":25.07959938,
    "lon":121.5686264,
    "value":1.0
  },
  {
    "name":"美善公園",
    "category":"parks",
    "lat":25.056999207,
    "lon":121.57858276,
    "value":1.0
  },
  {
    "name":"畚箕湖公園",
    "category":"parks",
    "lat":25.089436,
    "lon":121.560064,
    "value":1.0
  },
  {
    "name":"康湖二號公園",
    "category":"parks",
    "lat":25.074042,
    "lon":121.6088,
    "value":1.0
  },
  {
    "name":"康湖公園",
    "category":"parks",
    "lat":25.074680328,
    "lon":121.6087265,
    "value":1.0
  },
  {
    "name":"康寧公園",
    "category":"parks",
    "lat":25.068910599,
    "lon":121.60958862,
    "value":1.0
  },
  {
    "name":"清白公園",
    "category":"parks",
    "lat":25.081699371,
    "lon":121.59528351,
    "value":1.0
  },
  {
    "name":"港都公園",
    "category":"parks",
    "lat":25.082719803,
    "lon":121.57523346,
    "value":1.0
  },
  {
    "name":"港華一號公園",
    "category":"parks",
    "lat":25.087734,
    "lon":121.573586,
    "value":1.0
  },
  {
    "name":"港華二號公園",
    "category":"parks",
    "lat":25.087789536,
    "lon":121.57383728,
    "value":1.0
  },
  {
    "name":"港華三號公園",
    "category":"parks",
    "lat":25.086690903,
    "lon":121.57505798,
    "value":1.0
  },
  {
    "name":"港華六號公園",
    "category":"parks",
    "lat":25.084260941,
    "lon":121.57462311,
    "value":1.0
  },
  {
    "name":"港華四號公園",
    "category":"parks",
    "lat":25.086530685,
    "lon":121.57527924,
    "value":1.0
  },
  {
    "name":"港墘公園",
    "category":"parks",
    "lat":25.080978,
    "lon":121.576437,
    "value":1.0
  },
  {
    "name":"游美公園",
    "category":"parks",
    "lat":25.064599991,
    "lon":121.59719849,
    "value":1.0
  },
  {
    "name":"湖山9號公園",
    "category":"parks",
    "lat":25.085220337,
    "lon":121.60350037,
    "value":1.0
  },
  {
    "name":"湖山八號公園",
    "category":"parks",
    "lat":25.083919525,
    "lon":121.60327148,
    "value":1.0
  },
  {
    "name":"湖山三號公園",
    "category":"parks",
    "lat":25.08716011,
    "lon":121.6044693,
    "value":1.0
  },
  {
    "name":"湖山五號公園",
    "category":"parks",
    "lat":25.081579208,
    "lon":121.60083771,
    "value":1.0
  },
  {
    "name":"湖山六號公園",
    "category":"parks",
    "lat":25.083099365,
    "lon":121.60186005,
    "value":1.0
  },
  {
    "name":"湖山四號公園",
    "category":"parks",
    "lat":25.082700729,
    "lon":121.60075378,
    "value":1.0
  },
  {
    "name":"湖元公園",
    "category":"parks",
    "lat":25.068229675,
    "lon":121.58702087,
    "value":1.0
  },
  {
    "name":"湖畔公園",
    "category":"parks",
    "lat":25.088247,
    "lon":121.601473,
    "value":1.0
  },
  {
    "name":"湖聖公園",
    "category":"parks",
    "lat":25.069770813,
    "lon":121.59176636,
    "value":1.0
  },
  {
    "name":"湖興公園",
    "category":"parks",
    "lat":25.066930771,
    "lon":121.58959198,
    "value":1.0
  },
  {
    "name":"湖濱公園",
    "category":"parks",
    "lat":25.0815472937,
    "lon":121.5876265462,
    "value":1.0
  },
  {
    "name":"湖寶公園",
    "category":"parks",
    "lat":25.0666008,
    "lon":121.5995636,
    "value":1.0
  },
  {
    "name":"週美綠地",
    "category":"parks",
    "lat":25.056400299,
    "lon":121.58190155,
    "value":1.0
  },
  {
    "name":"陽光公園",
    "category":"parks",
    "lat":25.076736,
    "lon":121.586719,
    "value":1.0
  },
  {
    "name":"新明公園",
    "category":"parks",
    "lat":25.054130554,
    "lon":121.57881165,
    "value":1.0
  },
  {
    "name":"煙波庭公園",
    "category":"parks",
    "lat":25.086339951,
    "lon":121.59925079,
    "value":1.0
  },
  {
    "name":"瑞光公園",
    "category":"parks",
    "lat":25.071180344,
    "lon":121.5776825,
    "value":1.0
  },
  {
    "name":"瑞湖公園",
    "category":"parks",
    "lat":25.069309235,
    "lon":121.57688904,
    "value":1.0
  },
  {
    "name":"瑞陽公園",
    "category":"parks",
    "lat":25.07751,
    "lon":121.579352,
    "value":1.0
  },
  {
    "name":"碧山公園",
    "category":"parks",
    "lat":25.087080002,
    "lon":121.59195709,
    "value":1.0
  },
  {
    "name":"碧湖公園",
    "category":"parks",
    "lat":25.08218956,
    "lon":121.58428955,
    "value":1.0
  },
  {
    "name":"福壽公園",
    "category":"parks",
    "lat":25.079809189,
    "lon":121.59655762,
    "value":1.0
  },
  {
    "name":"翠湖公園",
    "category":"parks",
    "lat":25.08626,
    "lon":121.602107,
    "value":1.0
  },
  {
    "name":"樂活公園",
    "category":"parks",
    "lat":25.068244,
    "lon":121.618814,
    "value":1.0
  },
  {
    "name":"樂康公園",
    "category":"parks",
    "lat":25.070070267,
    "lon":121.62069702,
    "value":1.0
  },
  {
    "name":"環東公園",
    "category":"parks",
    "lat":25.043729782,
    "lon":121.5429306,
    "value":1.0
  },
  {
    "name":"麗湖公園",
    "category":"parks",
    "lat":25.073539,
    "lon":121.599282,
    "value":1.0
  },
  {
    "name":"內湖110號綠地",
    "category":"parks",
    "lat":25.071229935,
    "lon":121.5800705,
    "value":1.0
  },
  {
    "name":"內湖117號綠地",
    "category":"parks",
    "lat":25.083269119,
    "lon":121.60185242,
    "value":1.0
  },
  {
    "name":"內湖119號安興綠地",
    "category":"parks",
    "lat":25.057699203,
    "lon":121.58367157,
    "value":1.0
  },
  {
    "name":"文德1號綠地",
    "category":"parks",
    "lat":25.078590393,
    "lon":121.58421326,
    "value":1.0
  },
  {
    "name":"石潭公園",
    "category":"parks",
    "lat":25.063119888,
    "lon":121.59320831,
    "value":1.0
  },
  {
    "name":"康樂綠地",
    "category":"parks",
    "lat":25.07490921,
    "lon":121.6206131,
    "value":1.0
  },
  {
    "name":"港華5號綠地",
    "category":"parks",
    "lat":25.085449219,
    "lon":121.57428741,
    "value":1.0
  },
  {
    "name":"湖興綠地",
    "category":"parks",
    "lat":25.068939209,
    "lon":121.59089661,
    "value":1.0
  },
  {
    "name":"紫陽綠地",
    "category":"parks",
    "lat":25.076410294,
    "lon":121.58679962,
    "value":1.0
  },
  {
    "name":"潭美公園",
    "category":"parks",
    "lat":25.057010651,
    "lon":121.5816803,
    "value":1.0
  },
  {
    "name":"麗湖綠地",
    "category":"parks",
    "lat":25.073374,
    "lon":121.600509,
    "value":1.0
  },
  {
    "name":"治磐廣場",
    "category":"parks",
    "lat":25.08272934,
    "lon":121.56630707,
    "value":1.0
  },
  {
    "name":"港富廣場",
    "category":"parks",
    "lat":25.080299377,
    "lon":121.57811737,
    "value":1.0
  },
  {
    "name":"灣仔廣場",
    "category":"parks",
    "lat":25.068939209,
    "lon":121.59089661,
    "value":1.0
  },
  {
    "name":"大同公園",
    "category":"parks",
    "lat":25.067979813,
    "lon":121.51200104,
    "value":1.0
  },
  {
    "name":"大稻埕公園",
    "category":"parks",
    "lat":25.058660507,
    "lon":121.51036835,
    "value":1.0
  },
  {
    "name":"大龍公園",
    "category":"parks",
    "lat":25.070240021,
    "lon":121.51557922,
    "value":1.0
  },
  {
    "name":"玉泉公園",
    "category":"parks",
    "lat":25.049930573,
    "lon":121.50765228,
    "value":1.0
  },
  {
    "name":"至聖公園",
    "category":"parks",
    "lat":25.07118988,
    "lon":121.51769257,
    "value":1.0
  },
  {
    "name":"忠和公園",
    "category":"parks",
    "lat":25.057880402,
    "lon":121.50861359,
    "value":1.0
  },
  {
    "name":"哈密公園",
    "category":"parks",
    "lat":25.0748460039,
    "lon":121.5155940145,
    "value":1.0
  },
  {
    "name":"建成公園",
    "category":"parks",
    "lat":25.0540905,
    "lon":121.51822662,
    "value":1.0
  },
  {
    "name":"迪化公園",
    "category":"parks",
    "lat":25.071109772,
    "lon":121.51200867,
    "value":1.0
  },
  {
    "name":"國順公園",
    "category":"parks",
    "lat":25.066222,
    "lon":121.510025,
    "value":1.0
  },
  {
    "name":"景化公園",
    "category":"parks",
    "lat":25.065359116,
    "lon":121.51274109,
    "value":1.0
  },
  {
    "name":"朝陽公園",
    "category":"parks",
    "lat":25.05595,
    "lon":121.51313,
    "value":1.0
  },
  {
    "name":"塔城公園",
    "category":"parks",
    "lat":25.050720215,
    "lon":121.51080322,
    "value":1.0
  },
  {
    "name":"德鄰公園",
    "category":"parks",
    "lat":25.062169,
    "lon":121.514928,
    "value":1.0
  },
  {
    "name":"蔣渭水紀念公園",
    "category":"parks",
    "lat":25.059709549,
    "lon":121.51677704,
    "value":1.0
  },
  {
    "name":"樹德公園",
    "category":"parks",
    "lat":25.066799164,
    "lon":121.51628113,
    "value":1.0
  },
  {
    "name":"歸綏戲曲公園",
    "category":"parks",
    "lat":25.057970047,
    "lon":121.51309204,
    "value":1.0
  },
  {
    "name":"蘭州公園",
    "category":"parks",
    "lat":25.063959122,
    "lon":121.51538086,
    "value":1.0
  },
  {
    "name":"大同249綠地",
    "category":"parks",
    "lat":25.077430725,
    "lon":121.51145935,
    "value":1.0
  },
  {
    "name":"大同250綠地",
    "category":"parks",
    "lat":25.077220917,
    "lon":121.50985718,
    "value":1.0
  },
  {
    "name":"大同251綠地",
    "category":"parks",
    "lat":25.078380585,
    "lon":121.51184845,
    "value":1.0
  },
  {
    "name":"敦煌1號綠地",
    "category":"parks",
    "lat":25.0747509,
    "lon":121.51628876,
    "value":1.0
  },
  {
    "name":"敦煌2號綠地",
    "category":"parks",
    "lat":25.076969147,
    "lon":121.51644135,
    "value":1.0
  },
  {
    "name":"大同16號廣場",
    "category":"parks",
    "lat":25.056379318,
    "lon":121.50861359,
    "value":1.0
  },
  {
    "name":"大稻埕廣場",
    "category":"parks",
    "lat":25.055000305,
    "lon":121.50953674,
    "value":1.0
  },
  {
    "name":"六藝廣場",
    "category":"parks",
    "lat":25.074689865,
    "lon":121.5150528,
    "value":1.0
  },
  {
    "name":"太原廣場",
    "category":"parks",
    "lat":25.04747963,
    "lon":121.51663971,
    "value":1.0
  },
  {
    "name":"永樂廣場",
    "category":"parks",
    "lat":25.054660797,
    "lon":121.50965881,
    "value":1.0
  },
  {
    "name":"保安廣場",
    "category":"parks",
    "lat":25.070550919,
    "lon":121.51892853,
    "value":1.0
  },
  {
    "name":"建成圓環",
    "category":"parks",
    "lat":25.0527604,
    "lon":121.5142952,
    "value":1.0
  },
  {
    "name":"八德公園",
    "category":"parks",
    "lat":25.046930313,
    "lon":121.5457077,
    "value":1.0
  },
  {
    "name":"三民公園",
    "category":"parks",
    "lat":25.061380386,
    "lon":121.5669632,
    "value":1.0
  },
  {
    "name":"三民公園A",
    "category":"parks",
    "lat":25.061380386,
    "lon":121.5669632,
    "value":1.0
  },
  {
    "name":"中華公園",
    "category":"parks",
    "lat":25.053527,
    "lon":121.552484,
    "value":1.0
  },
  {
    "name":"民生公園",
    "category":"parks",
    "lat":25.057479858,
    "lon":121.55809784,
    "value":1.0
  },
  {
    "name":"民有一號公園",
    "category":"parks",
    "lat":25.060770035,
    "lon":121.54740143,
    "value":1.0
  },
  {
    "name":"民有二號公園",
    "category":"parks",
    "lat":25.059640884,
    "lon":121.54631805,
    "value":1.0
  },
  {
    "name":"民有三號公園",
    "category":"parks",
    "lat":25.058620453,
    "lon":121.54762268,
    "value":1.0
  },
  {
    "name":"民福綠地",
    "category":"parks",
    "lat":25.06276,
    "lon":121.54879,
    "value":1.0
  },
  {
    "name":"民權公園",
    "category":"parks",
    "lat":25.061910629,
    "lon":121.55917358,
    "value":1.0
  },
  {
    "name":"吉仁公園",
    "category":"parks",
    "lat":25.047809601,
    "lon":121.55348206,
    "value":1.0
  },
  {
    "name":"吉祥公園",
    "category":"parks",
    "lat":25.050533295,
    "lon":121.56404877,
    "value":1.0
  },
  {
    "name":"安平公園",
    "category":"parks",
    "lat":25.053020477,
    "lon":121.56449127,
    "value":1.0
  },
  {
    "name":"西松公園",
    "category":"parks",
    "lat":25.053689957,
    "lon":121.56413269,
    "value":1.0
  },
  {
    "name":"延壽一號公園",
    "category":"parks",
    "lat":25.057630539,
    "lon":121.55635071,
    "value":1.0
  },
  {
    "name":"延壽二號公園",
    "category":"parks",
    "lat":25.057350159,
    "lon":121.55275726,
    "value":1.0
  },
  {
    "name":"延壽三號公園",
    "category":"parks",
    "lat":25.056869507,
    "lon":121.55180359,
    "value":1.0
  },
  {
    "name":"松基公園",
    "category":"parks",
    "lat":25.055369,
    "lon":121.545445,
    "value":1.0
  },
  {
    "name":"松榮公園",
    "category":"parks",
    "lat":25.060208,
    "lon":121.555107,
    "value":1.0
  },
  {
    "name":"長壽公園",
    "category":"parks",
    "lat":25.053369522,
    "lon":121.55892181,
    "value":1.0
  },
  {
    "name":"美仁一號公園",
    "category":"parks",
    "lat":25.050149918,
    "lon":121.55345917,
    "value":1.0
  },
  {
    "name":"美仁二號公園",
    "category":"parks",
    "lat":25.049499512,
    "lon":121.55342102,
    "value":1.0
  },
  {
    "name":"健康公園",
    "category":"parks",
    "lat":25.05411911,
    "lon":121.56887054,
    "value":1.0
  },
  {
    "name":"婦聯公園",
    "category":"parks",
    "lat":25.054689407,
    "lon":121.55973053,
    "value":1.0
  },
  {
    "name":"富民生態公園",
    "category":"parks",
    "lat":25.060150146,
    "lon":121.56433868,
    "value":1.0
  },
  {
    "name":"富錦一號公園",
    "category":"parks",
    "lat":25.058889389,
    "lon":121.55902863,
    "value":1.0
  },
  {
    "name":"富錦二號公園",
    "category":"parks",
    "lat":25.059610367,
    "lon":121.55962372,
    "value":1.0
  },
  {
    "name":"富錦三號公園",
    "category":"parks",
    "lat":25.060239792,
    "lon":121.55889893,
    "value":1.0
  },
  {
    "name":"富錦五號公園",
    "category":"parks",
    "lat":25.058849335,
    "lon":121.55354309,
    "value":1.0
  },
  {
    "name":"富錦六號公園",
    "category":"parks",
    "lat":25.058210373,
    "lon":121.55290222,
    "value":1.0
  },
  {
    "name":"復盛公園",
    "category":"parks",
    "lat":25.04747963,
    "lon":121.56147003,
    "value":1.0
  },
  {
    "name":"復源公園",
    "category":"parks",
    "lat":25.046489716,
    "lon":121.55448151,
    "value":1.0
  },
  {
    "name":"敦中公園",
    "category":"parks",
    "lat":25.049900055,
    "lon":121.54589081,
    "value":1.0
  },
  {
    "name":"敦化公園",
    "category":"parks",
    "lat":25.046409607,
    "lon":121.5504837,
    "value":1.0
  },
  {
    "name":"敦北公園",
    "category":"parks",
    "lat":25.061229706,
    "lon":121.55156708,
    "value":1.0
  },
  {
    "name":"新中公園",
    "category":"parks",
    "lat":25.060520172,
    "lon":121.56086731,
    "value":1.0
  },
  {
    "name":"新東公園",
    "category":"parks",
    "lat":25.058799744,
    "lon":121.568367,
    "value":1.0
  },
  {
    "name":"寧安公園",
    "category":"parks",
    "lat":25.050350189,
    "lon":121.55487061,
    "value":1.0
  },
  {
    "name":"精忠2號公園",
    "category":"parks",
    "lat":25.056390762,
    "lon":121.55284882,
    "value":1.0
  },
  {
    "name":"精忠公園",
    "category":"parks",
    "lat":25.059339523,
    "lon":121.5521698,
    "value":1.0
  },
  {
    "name":"慶城公園 A",
    "category":"parks",
    "lat":25.05327034,
    "lon":121.54638672,
    "value":1.0
  },
  {
    "name":"撫遠公園",
    "category":"parks",
    "lat":25.06444931,
    "lon":121.56694794,
    "value":1.0
  },
  {
    "name":"舊宗1號公園 ( 新東農園 )",
    "category":"parks",
    "lat":25.061950684,
    "lon":121.56886292,
    "value":1.0
  },
  {
    "name":"舊宗2號公園",
    "category":"parks",
    "lat":25.05491066,
    "lon":121.56999969,
    "value":1.0
  },
  {
    "name":"鵬程公園",
    "category":"parks",
    "lat":25.055519104,
    "lon":121.56867218,
    "value":1.0
  },
  {
    "name":"寶清公園",
    "category":"parks",
    "lat":25.052120209,
    "lon":121.56764221,
    "value":1.0
  },
  {
    "name":"松山121號綠地三民圓環",
    "category":"parks",
    "lat":25.059160233,
    "lon":121.56256866,
    "value":1.0
  },
  {
    "name":"大理公園",
    "category":"parks",
    "lat":25.034139633,
    "lon":121.49365997,
    "value":1.0
  },
  {
    "name":"日善公園",
    "category":"parks",
    "lat":25.026383,
    "lon":121.496312,
    "value":1.0
  },
  {
    "name":"寺前公園",
    "category":"parks",
    "lat":25.033540726,
    "lon":121.49920654,
    "value":1.0
  },
  {
    "name":"老松公園",
    "category":"parks",
    "lat":25.038520813,
    "lon":121.50273895,
    "value":1.0
  },
  {
    "name":"西園公園",
    "category":"parks",
    "lat":25.026955,
    "lon":121.497882,
    "value":1.0
  },
  {
    "name":"孝德公園",
    "category":"parks",
    "lat":25.024124,
    "lon":121.49425,
    "value":1.0
  },
  {
    "name":"和平青草園(原萬華402號公園)",
    "category":"parks",
    "lat":25.032659531,
    "lon":121.49720764,
    "value":1.0
  },
  {
    "name":"東園公園",
    "category":"parks",
    "lat":25.020950317,
    "lon":121.49524689,
    "value":1.0
  },
  {
    "name":"長沙公園",
    "category":"parks",
    "lat":25.041500092,
    "lon":121.49992371,
    "value":1.0
  },
  {
    "name":"長順公園",
    "category":"parks",
    "lat":25.031850815,
    "lon":121.48902893,
    "value":1.0
  },
  {
    "name":"青山公園",
    "category":"parks",
    "lat":25.039369583,
    "lon":121.49830627,
    "value":1.0
  },
  {
    "name":"青年公園",
    "category":"parks",
    "lat":25.025110242,
    "lon":121.505861,
    "value":1.0
  },
  {
    "name":"保德公園",
    "category":"parks",
    "lat":25.022790909,
    "lon":121.49746704,
    "value":1.0
  },
  {
    "name":"柳鄉公園",
    "category":"parks",
    "lat":25.037260056,
    "lon":121.49543762,
    "value":1.0
  },
  {
    "name":"桂林公園",
    "category":"parks",
    "lat":25.038909912,
    "lon":121.49681854,
    "value":1.0
  },
  {
    "name":"華江一號公園",
    "category":"parks",
    "lat":25.035890579,
    "lon":121.49411011,
    "value":1.0
  },
  {
    "name":"華江七號公園",
    "category":"parks",
    "lat":25.035028,
    "lon":121.493461,
    "value":1.0
  },
  {
    "name":"華江二號公園",
    "category":"parks",
    "lat":121.4915085,
    "lon":25.03580093,
    "value":1.0
  },
  {
    "name":"華江八號公園",
    "category":"parks",
    "lat":25.034059525,
    "lon":121.49268341,
    "value":1.0
  },
  {
    "name":"華西公園",
    "category":"parks",
    "lat":25.038669586,
    "lon":121.49865723,
    "value":1.0
  },
  {
    "name":"新糖廍公園(糖廍文化園區)",
    "category":"parks",
    "lat":25.0335490551,
    "lon":121.4946462926,
    "value":1.0
  },
  {
    "name":"萬華51號公園",
    "category":"parks",
    "lat":25.03594017,
    "lon":121.50292206,
    "value":1.0
  },
  {
    "name":"壽德公園",
    "category":"parks",
    "lat":25.024429321,
    "lon":121.50113678,
    "value":1.0
  },
  {
    "name":"福星公園",
    "category":"parks",
    "lat":25.046070099,
    "lon":121.50591278,
    "value":1.0
  },
  {
    "name":"綠堤公園",
    "category":"parks",
    "lat":25.033210754,
    "lon":121.49289703,
    "value":1.0
  },
  {
    "name":"聚德公園",
    "category":"parks",
    "lat":25.034889221,
    "lon":121.49472046,
    "value":1.0
  },
  {
    "name":"艋舺公園",
    "category":"parks",
    "lat":25.0360378506,
    "lon":121.4999117105,
    "value":1.0
  },
  {
    "name":"糖廍公園",
    "category":"parks",
    "lat":25.0343931129,
    "lon":121.4946526053,
    "value":1.0
  },
  {
    "name":"錦德公園",
    "category":"parks",
    "lat":25.023300171,
    "lon":121.49236298,
    "value":1.0
  },
  {
    "name":"萬華266號綠地",
    "category":"parks",
    "lat":25.039159775,
    "lon":121.50309753,
    "value":1.0
  },
  {
    "name":"西本願寺（萬華406號）廣場",
    "category":"parks",
    "lat":25.040300369,
    "lon":121.50708008,
    "value":1.0
  },
  {
    "name":"二二八和平公園",
    "category":"parks",
    "lat":25.042286,
    "lon":121.514297,
    "value":1.0
  },
  {
    "name":"中央藝文公園",
    "category":"parks",
    "lat":25.046272,
    "lon":121.526856,
    "value":1.0
  },
  {
    "name":"中正403號公園",
    "category":"parks",
    "lat":25.02559,
    "lon":121.52049,
    "value":1.0
  },
  {
    "name":"介壽公園",
    "category":"parks",
    "lat":25.039260864,
    "lon":121.51463318,
    "value":1.0
  },
  {
    "name":"文光公園",
    "category":"parks",
    "lat":25.039039612,
    "lon":121.53085327,
    "value":1.0
  },
  {
    "name":"文盛公園",
    "category":"parks",
    "lat":25.016170502,
    "lon":121.53211975,
    "value":1.0
  },
  {
    "name":"水源町公園",
    "category":"parks",
    "lat":25.0118701542,
    "lon":121.534604402,
    "value":1.0
  },
  {
    "name":"永昌公園",
    "category":"parks",
    "lat":25.026229858,
    "lon":121.50995636,
    "value":1.0
  },
  {
    "name":"永福公園",
    "category":"parks",
    "lat":25.009801,
    "lon":121.532098,
    "value":1.0
  },
  {
    "name":"忠孝公園",
    "category":"parks",
    "lat":25.041830063,
    "lon":121.53202057,
    "value":1.0
  },
  {
    "name":"信愛公園",
    "category":"parks",
    "lat":25.034910202,
    "lon":121.52876282,
    "value":1.0
  },
  {
    "name":"南昌公園",
    "category":"parks",
    "lat":25.026819229,
    "lon":121.52020264,
    "value":1.0
  },
  {
    "name":"牯嶺公園",
    "category":"parks",
    "lat":25.02312088,
    "lon":121.51867676,
    "value":1.0
  },
  {
    "name":"連雲公園",
    "category":"parks",
    "lat":25.035209656,
    "lon":121.5318222,
    "value":1.0
  },
  {
    "name":"逸仙公園",
    "category":"parks",
    "lat":25.047700882,
    "lon":121.52002716,
    "value":1.0
  },
  {
    "name":"齊東公園",
    "category":"parks",
    "lat":25.041749954,
    "lon":121.52829742,
    "value":1.0
  },
  {
    "name":"黎明公園",
    "category":"parks",
    "lat":25.044139862,
    "lon":121.51555634,
    "value":1.0
  },
  {
    "name":"螢橋公園",
    "category":"parks",
    "lat":25.026720047,
    "lon":121.51725006,
    "value":1.0
  },
  {
    "name":"中正138號綠地",
    "category":"parks",
    "lat":25.03783989,
    "lon":121.51451111,
    "value":1.0
  },
  {
    "name":"北門廣場",
    "category":"parks",
    "lat":25.0480021,
    "lon":121.5116831,
    "value":1.0
  },
  {
    "name":"交通4號廣場",
    "category":"parks",
    "lat":25.047380447,
    "lon":121.51880646,
    "value":1.0
  },
  {
    "name":"交通8號廣場",
    "category":"parks",
    "lat":25.050319672,
    "lon":121.51651001,
    "value":1.0
  },
  {
    "name":"行旅廣場",
    "category":"parks",
    "lat":25.0477977,
    "lon":121.5132041,
    "value":1.0
  },
  {
    "name":"瑠公公園",
    "category":"parks",
    "lat":25.042409897,
    "lon":121.54572296,
    "value":1.0
  },
  {
    "name":"瑠公圳公園 ",
    "category":"parks",
    "lat":25.043609619,
    "lon":121.54312134,
    "value":1.0
  },
  {
    "name":"大安公園",
    "category":"parks",
    "lat":25.042760849,
    "lon":121.54280853,
    "value":1.0
  },
  {
    "name":"大安森林公園",
    "category":"parks",
    "lat":25.0333004,
    "lon":121.5358429,
    "value":1.0
  },
  {
    "name":"大學公園",
    "category":"parks",
    "lat":25.021909714,
    "lon":121.53289795,
    "value":1.0
  },
  {
    "name":"仁慈公園",
    "category":"parks",
    "lat":25.034130096,
    "lon":121.5457077,
    "value":1.0
  },
  {
    "name":"仁愛公園",
    "category":"parks",
    "lat":25.036619186,
    "lon":121.54624176,
    "value":1.0
  },
  {
    "name":"仁愛圓環",
    "category":"parks",
    "lat":25.037630081,
    "lon":121.54968262,
    "value":1.0
  },
  {
    "name":"公館公園",
    "category":"parks",
    "lat":25.0114267237,
    "lon":121.5407910799,
    "value":1.0
  },
  {
    "name":"古風公園",
    "category":"parks",
    "lat":25.021970749,
    "lon":121.52905273,
    "value":1.0
  },
  {
    "name":"古莊公園",
    "category":"parks",
    "lat":25.022729874,
    "lon":121.5282135,
    "value":1.0
  },
  {
    "name":"四維公園",
    "category":"parks",
    "lat":25.030630112,
    "lon":121.54532623,
    "value":1.0
  },
  {
    "name":"平安公園",
    "category":"parks",
    "lat":25.031959534,
    "lon":121.54931641,
    "value":1.0
  },
  {
    "name":"民榮公園",
    "category":"parks",
    "lat":25.035400391,
    "lon":121.53569794,
    "value":1.0
  },
  {
    "name":"民輝公園",
    "category":"parks",
    "lat":25.039510727,
    "lon":121.53505707,
    "value":1.0
  },
  {
    "name":"永康公園",
    "category":"parks",
    "lat":25.031620026,
    "lon":121.52971649,
    "value":1.0
  },
  {
    "name":"光信公園",
    "category":"parks",
    "lat":25.035560608,
    "lon":121.55580139,
    "value":1.0
  },
  {
    "name":"全安公園",
    "category":"parks",
    "lat":25.02545929,
    "lon":121.5512085,
    "value":1.0
  },
  {
    "name":"安東公園",
    "category":"parks",
    "lat":25.028930664,
    "lon":121.54482269,
    "value":1.0
  },
  {
    "name":"安祥公園",
    "category":"parks",
    "lat":25.034540176,
    "lon":121.54273224,
    "value":1.0
  },
  {
    "name":"辛亥一號公園",
    "category":"parks",
    "lat":25.0227108,
    "lon":121.53266144,
    "value":1.0
  },
  {
    "name":"和平公園",
    "category":"parks",
    "lat":25.023490906,
    "lon":121.54251862,
    "value":1.0
  },
  {
    "name":"和安公園",
    "category":"parks",
    "lat":25.034509659,
    "lon":121.54447937,
    "value":1.0
  },
  {
    "name":"居安公園",
    "category":"parks",
    "lat":25.029680252,
    "lon":121.54933167,
    "value":1.0
  },
  {
    "name":"延吉公園",
    "category":"parks",
    "lat":25.042570114,
    "lon":121.55577087,
    "value":1.0
  },
  {
    "name":"昌隆198公園",
    "category":"parks",
    "lat":25.0437603,
    "lon":121.5357132,
    "value":1.0
  },
  {
    "name":"東豐公園",
    "category":"parks",
    "lat":25.035779953,
    "lon":121.54486084,
    "value":1.0
  },
  {
    "name":"法治公園",
    "category":"parks",
    "lat":25.026910782,
    "lon":121.55291748,
    "value":1.0
  },
  {
    "name":"臥龍公園",
    "category":"parks",
    "lat":25.016700745,
    "lon":121.54988861,
    "value":1.0
  },
  {
    "name":"虎嘯公園",
    "category":"parks",
    "lat":25.022529602,
    "lon":121.54927826,
    "value":1.0
  },
  {
    "name":"金山公園",
    "category":"parks",
    "lat":25.0309597984,
    "lon":121.5247560551,
    "value":1.0
  },
  {
    "name":"金杭公園",
    "category":"parks",
    "lat":25.0329003787,
    "lon":121.5268770542,
    "value":1.0
  },
  {
    "name":"金華公園",
    "category":"parks",
    "lat":25.029590607,
    "lon":121.53117371,
    "value":1.0
  },
  {
    "name":"附中公園",
    "category":"parks",
    "lat":25.036340714,
    "lon":121.54225922,
    "value":1.0
  },
  {
    "name":"青峰公園",
    "category":"parks",
    "lat":25.015699387,
    "lon":121.55140686,
    "value":1.0
  },
  {
    "name":"師大公園",
    "category":"parks",
    "lat":25.024599075,
    "lon":121.52837372,
    "value":1.0
  },
  {
    "name":"泰順公園",
    "category":"parks",
    "lat":25.024620056,
    "lon":121.5316391,
    "value":1.0
  },
  {
    "name":"通化公園",
    "category":"parks",
    "lat":25.032159805,
    "lon":121.5545578,
    "value":1.0
  },
  {
    "name":"富陽自然生態公園",
    "category":"parks",
    "lat":25.016674,
    "lon":121.557488,
    "value":1.0
  },
  {
    "name":"敦仁公園",
    "category":"parks",
    "lat":25.0404019091,
    "lon":121.5469086971,
    "value":1.0
  },
  {
    "name":"敦安公園",
    "category":"parks",
    "lat":25.034460068,
    "lon":121.55370331,
    "value":1.0
  },
  {
    "name":"敦親公園",
    "category":"parks",
    "lat":25.022659302,
    "lon":121.54090881,
    "value":1.0
  },
  {
    "name":"新龍公園",
    "category":"parks",
    "lat":25.027650833,
    "lon":121.54016113,
    "value":1.0
  },
  {
    "name":"溫州公園",
    "category":"parks",
    "lat":25.018800735,
    "lon":121.53134155,
    "value":1.0
  },
  {
    "name":"瑞安公園",
    "category":"parks",
    "lat":25.026130676,
    "lon":121.53935242,
    "value":1.0
  },
  {
    "name":"群賢公園",
    "category":"parks",
    "lat":25.025400162,
    "lon":121.54656982,
    "value":1.0
  },
  {
    "name":"誠安公園",
    "category":"parks",
    "lat":25.042490005,
    "lon":121.54090881,
    "value":1.0
  },
  {
    "name":"嘉興公園",
    "category":"parks",
    "lat":25.021369934,
    "lon":121.55194855,
    "value":1.0
  },
  {
    "name":"寧馨公園A",
    "category":"parks",
    "lat":25.04434967,
    "lon":121.53349304,
    "value":1.0
  },
  {
    "name":"福州山公園",
    "category":"parks",
    "lat":25.015890121,
    "lon":121.55161285,
    "value":1.0
  },
  {
    "name":"德安公園",
    "category":"parks",
    "lat":25.034879684,
    "lon":121.54777527,
    "value":1.0
  },
  {
    "name":"黎孝公園",
    "category":"parks",
    "lat":25.019760132,
    "lon":121.55599213,
    "value":1.0
  },
  {
    "name":"黎和生態公園",
    "category":"parks",
    "lat":25.015128,
    "lon":121.560002,
    "value":1.0
  },
  {
    "name":"錦安公園",
    "category":"parks",
    "lat":25.027980804,
    "lon":121.52794647,
    "value":1.0
  },
  {
    "name":"龍生公園",
    "category":"parks",
    "lat":25.026010513,
    "lon":121.54139709,
    "value":1.0
  },
  {
    "name":"龍門公園",
    "category":"parks",
    "lat":25.024259567,
    "lon":121.53668213,
    "value":1.0
  },
  {
    "name":"龍陣一號公園",
    "category":"parks",
    "lat":25.027589798,
    "lon":121.5425415,
    "value":1.0
  },
  {
    "name":"龍陣二號公園 A",
    "category":"parks",
    "lat":25.029239655,
    "lon":121.5424881,
    "value":1.0
  },
  {
    "name":"龍陣二號公園 B",
    "category":"parks",
    "lat":25.029239655,
    "lon":121.5424881,
    "value":1.0
  },
  {
    "name":"龍圖公園",
    "category":"parks",
    "lat":25.030490875,
    "lon":121.54160309,
    "value":1.0
  },
  {
    "name":"龍鳳公園",
    "category":"parks",
    "lat":25.0256109235,
    "lon":121.5432735481,
    "value":1.0
  },
  {
    "name":"臨江公園",
    "category":"parks",
    "lat":25.028160095,
    "lon":121.55574036,
    "value":1.0
  },
  {
    "name":"麗水公園",
    "category":"parks",
    "lat":25.03191447,
    "lon":121.5280876,
    "value":1.0
  },
  {
    "name":"大安125號綠地",
    "category":"parks",
    "lat":25.044420242,
    "lon":121.53368378,
    "value":1.0
  },
  {
    "name":"大安195號綠地",
    "category":"parks",
    "lat":25.020019531,
    "lon":121.53143311,
    "value":1.0
  },
  {
    "name":"黎和綠地",
    "category":"parks",
    "lat":25.015930176,
    "lon":121.56056976,
    "value":1.0
  },
  {
    "name":"錦華綠地",
    "category":"parks",
    "lat":25.029579163,
    "lon":121.52957916,
    "value":1.0
  },
  {
    "name":"三張里公園",
    "category":"parks",
    "lat":25.030929565,
    "lon":121.56672668,
    "value":1.0
  },
  {
    "name":"三犁公園",
    "category":"parks",
    "lat":25.029779434,
    "lon":121.57002258,
    "value":1.0
  },
  {
    "name":"三興公園",
    "category":"parks",
    "lat":25.028579712,
    "lon":121.55954742,
    "value":1.0
  },
  {
    "name":"中全公園",
    "category":"parks",
    "lat":25.038589478,
    "lon":121.57489014,
    "value":1.0
  },
  {
    "name":"中興公園",
    "category":"parks",
    "lat":25.034269333,
    "lon":121.55924988,
    "value":1.0
  },
  {
    "name":"五分埔公園",
    "category":"parks",
    "lat":25.04693985,
    "lon":121.58010101,
    "value":1.0
  },
  {
    "name":"五常公園",
    "category":"parks",
    "lat":25.047689438,
    "lon":121.57434082,
    "value":1.0
  },
  {
    "name":"四育公園",
    "category":"parks",
    "lat":25.046760559,
    "lon":121.57514191,
    "value":1.0
  },
  {
    "name":"永吉公園",
    "category":"parks",
    "lat":25.043590546,
    "lon":121.57504272,
    "value":1.0
  },
  {
    "name":"永春公園",
    "category":"parks",
    "lat":25.042299271,
    "lon":121.57911682,
    "value":1.0
  },
  {
    "name":"永春陂濕地公園",
    "category":"parks",
    "lat":25.032812,
    "lon":121.580069,
    "value":1.0
  },
  {
    "name":"永春崗公園",
    "category":"parks",
    "lat":25.031709671,
    "lon":121.57759094,
    "value":1.0
  },
  {
    "name":"交五",
    "category":"parks",
    "lat":25.049209595,
    "lon":121.57415009,
    "value":1.0
  },
  {
    "name":"安強公園",
    "category":"parks",
    "lat":25.036689758,
    "lon":121.57534027,
    "value":1.0
  },
  {
    "name":"吳興公園",
    "category":"parks",
    "lat":25.023290634,
    "lon":121.56793976,
    "value":1.0
  },
  {
    "name":"念儒公園",
    "category":"parks",
    "lat":25.037719727,
    "lon":121.57376099,
    "value":1.0
  },
  {
    "name":"林口2號綠地(松光)",
    "category":"parks",
    "lat":25.0399,
    "lon":121.57882,
    "value":1.0
  },
  {
    "name":"林口公園",
    "category":"parks",
    "lat":25.039060593,
    "lon":121.57894897,
    "value":1.0
  },
  {
    "name":"松友公園",
    "category":"parks",
    "lat":25.033910751,
    "lon":121.57614899,
    "value":1.0
  },
  {
    "name":"松壽廣場",
    "category":"parks",
    "lat":25.037389755,
    "lon":121.56607819,
    "value":1.0
  },
  {
    "name":"松德公園",
    "category":"parks",
    "lat":25.036020279,
    "lon":121.57328796,
    "value":1.0
  },
  {
    "name":"虎林公園",
    "category":"parks",
    "lat":25.031480789,
    "lon":121.5772934,
    "value":1.0
  },
  {
    "name":"信義352號公園 (松智公園)",
    "category":"parks",
    "lat":25.035820007,
    "lon":121.56551361,
    "value":1.0
  },
  {
    "name":"信義安康公園",
    "category":"parks",
    "lat":25.035720825,
    "lon":121.57006836,
    "value":1.0
  },
  {
    "name":"春光公園",
    "category":"parks",
    "lat":25.042230606,
    "lon":121.58074188,
    "value":1.0
  },
  {
    "name":"革新公園",
    "category":"parks",
    "lat":25.043830872,
    "lon":121.56736755,
    "value":1.0
  },
  {
    "name":"泰和公園",
    "category":"parks",
    "lat":25.023139954,
    "lon":121.56819916,
    "value":1.0
  },
  {
    "name":"眷村文化公園",
    "category":"parks",
    "lat":25.031639099,
    "lon":121.56175232,
    "value":1.0
  },
  {
    "name":"富台公園",
    "category":"parks",
    "lat":25.042070389,
    "lon":121.57224274,
    "value":1.0
  },
  {
    "name":"富生1號公園",
    "category":"parks",
    "lat":25.0422291931,
    "lon":121.5698486381,
    "value":1.0
  },
  {
    "name":"富生2號公園",
    "category":"parks",
    "lat":25.0423805333,
    "lon":121.5696237077,
    "value":1.0
  },
  {
    "name":"富生公園",
    "category":"parks",
    "lat":25.042089462,
    "lon":121.56984711,
    "value":1.0
  },
  {
    "name":"惠安公園",
    "category":"parks",
    "lat":25.024549484,
    "lon":121.56462097,
    "value":1.0
  },
  {
    "name":"景平公園",
    "category":"parks",
    "lat":25.02989006,
    "lon":121.56394196,
    "value":1.0
  },
  {
    "name":"景勤1號公園",
    "category":"parks",
    "lat":25.026330948,
    "lon":121.56025696,
    "value":1.0
  },
  {
    "name":"景勤2號公園",
    "category":"parks",
    "lat":25.026039124,
    "lon":121.55748749,
    "value":1.0
  },
  {
    "name":"象山公園",
    "category":"parks",
    "lat":25.030410767,
    "lon":121.57009125,
    "value":1.0
  },
  {
    "name":"雅祥公園",
    "category":"parks",
    "lat":25.047569275,
    "lon":121.57183075,
    "value":1.0
  },
  {
    "name":"福祥公園",
    "category":"parks",
    "lat":25.046039581,
    "lon":121.57050323,
    "value":1.0
  },
  {
    "name":"福德公園",
    "category":"parks",
    "lat":25.038240433,
    "lon":121.58184814,
    "value":1.0
  },
  {
    "name":"黎忠公園",
    "category":"parks",
    "lat":25.019079208,
    "lon":121.55937195,
    "value":1.0
  },
  {
    "name":"黎富公園",
    "category":"parks",
    "lat":25.021009445,
    "lon":121.55670166,
    "value":1.0
  },
  {
    "name":"黎雙公園",
    "category":"parks",
    "lat":25.024980545,
    "lon":121.56346893,
    "value":1.0
  },
  {
    "name":"糶米公園",
    "category":"parks",
    "lat":25.018614,
    "lon":121.572468,
    "value":1.0
  },
  {
    "name":"太子綠地",
    "category":"parks",
    "lat":25.045190811,
    "lon":121.57707214,
    "value":1.0
  },
  {
    "name":"交六",
    "category":"parks",
    "lat":25.049329758,
    "lon":121.57086945,
    "value":1.0
  },
  {
    "name":"松光綠地",
    "category":"parks",
    "lat":25.039499283,
    "lon":121.57852936,
    "value":1.0
  },
  {
    "name":"松隆綠地",
    "category":"parks",
    "lat":25.034959793,
    "lon":121.58010864,
    "value":1.0
  },
  {
    "name":"信義350綠地",
    "category":"parks",
    "lat":25.039230347,
    "lon":121.56256866,
    "value":1.0
  },
  {
    "name":"信義351號綠地",
    "category":"parks",
    "lat":25.039180756,
    "lon":121.56543732,
    "value":1.0
  },
  {
    "name":"信義353號綠地 (松仁綠地)",
    "category":"parks",
    "lat":25.032749176,
    "lon":121.56771851,
    "value":1.0
  },
  {
    "name":"信義354號綠地",
    "category":"parks",
    "lat":25.029460907,
    "lon":121.56842041,
    "value":1.0
  },
  {
    "name":"信義355號綠地",
    "category":"parks",
    "lat":25.030899048,
    "lon":121.56833649,
    "value":1.0
  },
  {
    "name":"信義356號綠地",
    "category":"parks",
    "lat":25.033380508,
    "lon":121.57370758,
    "value":1.0
  },
  {
    "name":"信義382號綠地 (惠安水與綠生活綠地)",
    "category":"parks",
    "lat":25.023359299,
    "lon":121.5682373,
    "value":1.0
  },
  {
    "name":"崇德綠地",
    "category":"parks",
    "lat":25.024219513,
    "lon":121.55545044,
    "value":1.0
  },
  {
    "name":"黎平綠地",
    "category":"parks",
    "lat":25.023189545,
    "lon":121.55712128,
    "value":1.0
  },
  {
    "name":"市民廣場",
    "category":"parks",
    "lat":25.036640167,
    "lon":121.56275177,
    "value":1.0
  },
  {
    "name":"忠信廣場",
    "category":"parks",
    "lat":25.040540695,
    "lon":121.56790924,
    "value":1.0
  },
  {
    "name":"信義20號廣場",
    "category":"parks",
    "lat":25.048749924,
    "lon":121.57758331,
    "value":1.0
  },
  {
    "name":"信義21號廣場",
    "category":"parks",
    "lat":25.034730911,
    "lon":121.56446838,
    "value":1.0
  },
  {
    "name":"信義廣場",
    "category":"parks",
    "lat":25.033479691,
    "lon":121.56604004,
    "value":1.0
  },
  {
    "name":"厚生廣場",
    "category":"parks",
    "lat":25.043409348,
    "lon":121.56809998,
    "value":1.0
  },
  {
    "name":"景聯廣場",
    "category":"parks",
    "lat":25.032520294,
    "lon":121.56140137,
    "value":1.0
  },
  {
    "name":"三重世貿公園",
    "category":"parks",
    "lat":25.057929993,
    "lon":121.61538696,
    "value":1.0
  },
  {
    "name":"中南公園",
    "category":"parks",
    "lat":25.05121994,
    "lon":121.61547089,
    "value":1.0
  },
  {
    "name":"中研公園",
    "category":"parks",
    "lat":25.046890259,
    "lon":121.61305237,
    "value":1.0
  },
  {
    "name":"中興公園",
    "category":"parks",
    "lat":25.044200897,
    "lon":121.61485291,
    "value":1.0
  },
  {
    "name":"六福公園",
    "category":"parks",
    "lat":25.047260284,
    "lon":121.61650848,
    "value":1.0
  },
  {
    "name":"四分河濱公園",
    "category":"parks",
    "lat":25.048629761,
    "lon":121.61569214,
    "value":1.0
  },
  {
    "name":"市民公園",
    "category":"parks",
    "lat":25.049289703,
    "lon":121.5817337,
    "value":1.0
  },
  {
    "name":"玉成公園",
    "category":"parks",
    "lat":25.042549133,
    "lon":121.58550262,
    "value":1.0
  },
  {
    "name":"玉東公園",
    "category":"parks",
    "lat":25.050188,
    "lon":121.584156,
    "value":1.0
  },
  {
    "name":"合成18號綠園",
    "category":"parks",
    "lat":25.046260834,
    "lon":121.58291626,
    "value":1.0
  },
  {
    "name":"合成8號綠園",
    "category":"parks",
    "lat":25.050830841,
    "lon":121.59378815,
    "value":1.0
  },
  {
    "name":"合成公園",
    "category":"parks",
    "lat":25.045099258,
    "lon":121.58113861,
    "value":1.0
  },
  {
    "name":"合樂公園",
    "category":"parks",
    "lat":25.048500061,
    "lon":121.58188629,
    "value":1.0
  },
  {
    "name":"百福公園",
    "category":"parks",
    "lat":25.037939072,
    "lon":121.58853912,
    "value":1.0
  },
  {
    "name":"幸福公園",
    "category":"parks",
    "lat":25.046020508,
    "lon":121.61605072,
    "value":1.0
  },
  {
    "name":"昆陽公園",
    "category":"parks",
    "lat":25.048719406,
    "lon":121.59420013,
    "value":1.0
  },
  {
    "name":"東坡公園",
    "category":"parks",
    "lat":25.045230865,
    "lon":121.5933075,
    "value":1.0
  },
  {
    "name":"東明公園",
    "category":"parks",
    "lat":25.054800034,
    "lon":121.6036377,
    "value":1.0
  },
  {
    "name":"東陽公園",
    "category":"parks",
    "lat":25.057439804,
    "lon":121.60373688,
    "value":1.0
  },
  {
    "name":"南汐公園",
    "category":"parks",
    "lat":25.054679871,
    "lon":121.61769104,
    "value":1.0
  },
  {
    "name":"南港公園",
    "category":"parks",
    "lat":25.043069839,
    "lon":121.59191132,
    "value":1.0
  },
  {
    "name":"南興公園",
    "category":"parks",
    "lat":25.054019928,
    "lon":121.60690308,
    "value":1.0
  },
  {
    "name":"後山埤公園",
    "category":"parks",
    "lat":25.043710709,
    "lon":121.58995056,
    "value":1.0
  },
  {
    "name":"胡適公園",
    "category":"parks",
    "lat":25.039920807,
    "lon":121.61791229,
    "value":1.0
  },
  {
    "name":"重陽公園",
    "category":"parks",
    "lat":25.056200027,
    "lon":121.59915161,
    "value":1.0
  },
  {
    "name":"理想公園",
    "category":"parks",
    "lat":25.039869308,
    "lon":121.62158966,
    "value":1.0
  },
  {
    "name":"瓶蓋印象公園",
    "category":"parks",
    "lat":25.053719,
    "lon":121.606226,
    "value":1.0
  },
  {
    "name":"港後公園",
    "category":"parks",
    "lat":25.062749863,
    "lon":121.61537933,
    "value":1.0
  },
  {
    "name":"湧聲公園",
    "category":"parks",
    "lat":25.043279648,
    "lon":121.59275818,
    "value":1.0
  },
  {
    "name":"新勝公園",
    "category":"parks",
    "lat":25.048849106,
    "lon":121.59316254,
    "value":1.0
  },
  {
    "name":"新富公園",
    "category":"parks",
    "lat":25.053030014,
    "lon":121.61695862,
    "value":1.0
  },
  {
    "name":"新新公園",
    "category":"parks",
    "lat":25.051391,
    "lon":121.588752,
    "value":1.0
  },
  {
    "name":"萬福公園",
    "category":"parks",
    "lat":25.04624939,
    "lon":121.58444977,
    "value":1.0
  },
  {
    "name":"經貿公園",
    "category":"parks",
    "lat":25.062580109,
    "lon":121.61636353,
    "value":1.0
  },
  {
    "name":"福山公園",
    "category":"parks",
    "lat":25.044700623,
    "lon":121.61785126,
    "value":1.0
  },
  {
    "name":"興南公園",
    "category":"parks",
    "lat":25.055120468,
    "lon":121.59739685,
    "value":1.0
  },
  {
    "name":"興華公園",
    "category":"parks",
    "lat":25.056770325,
    "lon":121.60478973,
    "value":1.0
  },
  {
    "name":"錫口廊道",
    "category":"parks",
    "lat":25.0510065705,
    "lon":121.5799313646,
    "value":1.0
  },
  {
    "name":"聯成公園",
    "category":"parks",
    "lat":25.046590805,
    "lon":121.58721924,
    "value":1.0
  },
  {
    "name":"舊莊公園",
    "category":"parks",
    "lat":25.041370392,
    "lon":121.62026978,
    "value":1.0
  },
  {
    "name":"九如綠地",
    "category":"parks",
    "lat":25.038560867,
    "lon":121.61631012,
    "value":1.0
  },
  {
    "name":"四分綠地",
    "category":"parks",
    "lat":25.0358818875,
    "lon":121.6150019505,
    "value":1.0
  },
  {
    "name":"成福綠地",
    "category":"parks",
    "lat":25.045370102,
    "lon":121.59294891,
    "value":1.0
  },
  {
    "name":"成德綠地",
    "category":"parks",
    "lat":25.046449661,
    "lon":121.58746338,
    "value":1.0
  },
  {
    "name":"東明綠地",
    "category":"parks",
    "lat":25.054269791,
    "lon":121.60069275,
    "value":1.0
  },
  {
    "name":"東新綠地",
    "category":"parks",
    "lat":25.053590775,
    "lon":121.60244751,
    "value":1.0
  },
  {
    "name":"南深綠地",
    "category":"parks",
    "lat":25.037929535,
    "lon":121.62316132,
    "value":1.0
  },
  {
    "name":"南港29號綠地",
    "category":"parks",
    "lat":25.042390823,
    "lon":121.61723328,
    "value":1.0
  },
  {
    "name":"南港65號園區綠地",
    "category":"parks",
    "lat":25.059030533,
    "lon":121.61421967,
    "value":1.0
  },
  {
    "name":"新坡綠地",
    "category":"parks",
    "lat":25.035610199,
    "lon":121.61775208,
    "value":1.0
  },
  {
    "name":"新南綠地",
    "category":"parks",
    "lat":25.051849365,
    "lon":121.60655212,
    "value":1.0
  },
  {
    "name":"新陽綠地",
    "category":"parks",
    "lat":25.056930542,
    "lon":121.60341644,
    "value":1.0
  },
  {
    "name":"合心廣場",
    "category":"parks",
    "lat":25.046609879,
    "lon":121.58345795,
    "value":1.0
  },
  {
    "name":"南港五號廣場",
    "category":"parks",
    "lat":25.054069519,
    "lon":121.59980011,
    "value":1.0
  },
  {
    "name":"140高地",
    "category":"parks",
    "lat":25.003580093,
    "lon":121.56960297,
    "value":1.0
  },
  {
    "name":"久康公園",
    "category":"parks",
    "lat":24.989349365,
    "lon":121.56458282,
    "value":1.0
  },
  {
    "name":"小坑1號公園",
    "category":"parks",
    "lat":24.983379364,
    "lon":121.58522797,
    "value":1.0
  },
  {
    "name":"文山(景美)49號公園",
    "category":"parks",
    "lat":24.995889664,
    "lon":121.54785156,
    "value":1.0
  },
  {
    "name":"文山木柵59號公園",
    "category":"parks",
    "lat":24.98526001,
    "lon":121.58258057,
    "value":1.0
  },
  {
    "name":"文山森林公園",
    "category":"parks",
    "lat":25.00435,
    "lon":121.548322,
    "value":1.0
  },
  {
    "name":"木南公園",
    "category":"parks",
    "lat":24.986530304,
    "lon":121.57083893,
    "value":1.0
  },
  {
    "name":"木柵公園",
    "category":"parks",
    "lat":24.986949921,
    "lon":121.56046295,
    "value":1.0
  },
  {
    "name":"木新公園",
    "category":"parks",
    "lat":24.982219696,
    "lon":121.5580368,
    "value":1.0
  },
  {
    "name":"木榮公園",
    "category":"parks",
    "lat":24.984640121,
    "lon":121.56865692,
    "value":1.0
  },
  {
    "name":"水景公園",
    "category":"parks",
    "lat":24.986980438,
    "lon":121.58683777,
    "value":1.0
  },
  {
    "name":"仙岩公園",
    "category":"parks",
    "lat":24.997970581,
    "lon":121.54936218,
    "value":1.0
  },
  {
    "name":"光明公園",
    "category":"parks",
    "lat":24.986469269,
    "lon":121.55471039,
    "value":1.0
  },
  {
    "name":"光輝公園",
    "category":"parks",
    "lat":24.986120224,
    "lon":121.55583954,
    "value":1.0
  },
  {
    "name":"辛亥生態公園",
    "category":"parks",
    "lat":25.003685,
    "lon":121.556764,
    "value":1.0
  },
  {
    "name":"坡內坑公園",
    "category":"parks",
    "lat":25.004970551,
    "lon":121.57655334,
    "value":1.0
  },
  {
    "name":"忠順公園",
    "category":"parks",
    "lat":24.983140945,
    "lon":121.56114197,
    "value":1.0
  },
  {
    "name":"忠順萊茵公園",
    "category":"parks",
    "lat":24.986780167,
    "lon":121.56536865,
    "value":1.0
  },
  {
    "name":"明義公園",
    "category":"parks",
    "lat":24.988069534,
    "lon":121.56098175,
    "value":1.0
  },
  {
    "name":"芳寧公園",
    "category":"parks",
    "lat":25.004529953,
    "lon":121.5632782,
    "value":1.0
  },
  {
    "name":"保儀公園",
    "category":"parks",
    "lat":24.983539581,
    "lon":121.56346893,
    "value":1.0
  },
  {
    "name":"恆光公園",
    "category":"parks",
    "lat":24.982410431,
    "lon":121.56758881,
    "value":1.0
  },
  {
    "name":"原野運動公園",
    "category":"parks",
    "lat":24.99712944,
    "lon":121.57137299,
    "value":1.0
  },
  {
    "name":"博嘉公園",
    "category":"parks",
    "lat":25.000450134,
    "lon":121.57353973,
    "value":1.0
  },
  {
    "name":"景仁公園",
    "category":"parks",
    "lat":24.996669769,
    "lon":121.5401001,
    "value":1.0
  },
  {
    "name":"景行公園",
    "category":"parks",
    "lat":24.992519379,
    "lon":121.54277802,
    "value":1.0
  },
  {
    "name":"景美公園(原萬慶公園)",
    "category":"parks",
    "lat":24.994020462,
    "lon":121.53759766,
    "value":1.0
  },
  {
    "name":"景美運動公園",
    "category":"parks",
    "lat":25.002540588,
    "lon":121.54451752,
    "value":1.0
  },
  {
    "name":"景華公園",
    "category":"parks",
    "lat":24.995189667,
    "lon":121.54379272,
    "value":1.0
  },
  {
    "name":"景福公園",
    "category":"parks",
    "lat":24.995679855,
    "lon":121.54032135,
    "value":1.0
  },
  {
    "name":"景豐公園",
    "category":"parks",
    "lat":25.0001297,
    "lon":121.54505157,
    "value":1.0
  },
  {
    "name":"華興公園",
    "category":"parks",
    "lat":24.989170074,
    "lon":121.55046844,
    "value":1.0
  },
  {
    "name":"順興公園綠地",
    "category":"parks",
    "lat":24.986089706,
    "lon":121.56437683,
    "value":1.0
  },
  {
    "name":"新榮公園",
    "category":"parks",
    "lat":24.983329773,
    "lon":121.57022095,
    "value":1.0
  },
  {
    "name":"椰城公園",
    "category":"parks",
    "lat":25.0063591,
    "lon":121.5687027,
    "value":1.0
  },
  {
    "name":"萬年1號公園",
    "category":"parks",
    "lat":25.005699158,
    "lon":121.53620148,
    "value":1.0
  },
  {
    "name":"萬年2號公園",
    "category":"parks",
    "lat":25.005699158,
    "lon":121.53620148,
    "value":1.0
  },
  {
    "name":"萬年3號公園",
    "category":"parks",
    "lat":25.007040024,
    "lon":121.53692627,
    "value":1.0
  },
  {
    "name":"萬有1號公園",
    "category":"parks",
    "lat":24.999830246,
    "lon":121.54295349,
    "value":1.0
  },
  {
    "name":"萬有2號公園",
    "category":"parks",
    "lat":25.000709534,
    "lon":121.54190063,
    "value":1.0
  },
  {
    "name":"萬有3號公園",
    "category":"parks",
    "lat":24.998720169,
    "lon":121.54309845,
    "value":1.0
  },
  {
    "name":"萬和1號公園",
    "category":"parks",
    "lat":25.000490189,
    "lon":121.53632355,
    "value":1.0
  },
  {
    "name":"萬和2號公園",
    "category":"parks",
    "lat":25.001489639,
    "lon":121.53653717,
    "value":1.0
  },
  {
    "name":"萬和3號公園",
    "category":"parks",
    "lat":25.003810883,
    "lon":121.53633881,
    "value":1.0
  },
  {
    "name":"萬芳10號公園",
    "category":"parks",
    "lat":25.001649857,
    "lon":121.56249237,
    "value":1.0
  },
  {
    "name":"萬芳11號公園",
    "category":"parks",
    "lat":25.00304985,
    "lon":121.56307983,
    "value":1.0
  },
  {
    "name":"萬芳12號公園",
    "category":"parks",
    "lat":25.001470566,
    "lon":121.56358337,
    "value":1.0
  },
  {
    "name":"萬芳13號公園",
    "category":"parks",
    "lat":25.001729965,
    "lon":121.56539917,
    "value":1.0
  },
  {
    "name":"萬芳14號公園",
    "category":"parks",
    "lat":25.000320435,
    "lon":121.56533051,
    "value":1.0
  },
  {
    "name":"萬芳1號公園",
    "category":"parks",
    "lat":24.999860764,
    "lon":121.56672668,
    "value":1.0
  },
  {
    "name":"萬芳2號公園",
    "category":"parks",
    "lat":24.999200821,
    "lon":121.56677246,
    "value":1.0
  },
  {
    "name":"萬芳3號公園",
    "category":"parks",
    "lat":24.999250412,
    "lon":121.56710052,
    "value":1.0
  },
  {
    "name":"萬芳4號公園",
    "category":"parks",
    "lat":25.00153923,
    "lon":121.56752777,
    "value":1.0
  },
  {
    "name":"萬芳6號公園",
    "category":"parks",
    "lat":24.999500275,
    "lon":121.56918335,
    "value":1.0
  },
  {
    "name":"萬芳7號公園",
    "category":"parks",
    "lat":25.001579285,
    "lon":121.56616211,
    "value":1.0
  },
  {
    "name":"萬芳8號公園",
    "category":"parks",
    "lat":25.003009796,
    "lon":121.56046295,
    "value":1.0
  },
  {
    "name":"萬芳9號公園",
    "category":"parks",
    "lat":25.001779556,
    "lon":121.56147766,
    "value":1.0
  },
  {
    "name":"萬盛公園",
    "category":"parks",
    "lat":25.005149841,
    "lon":121.5410614,
    "value":1.0
  },
  {
    "name":"萬壽1號公園",
    "category":"parks",
    "lat":24.987470627,
    "lon":121.58921814,
    "value":1.0
  },
  {
    "name":"萬壽2號公園",
    "category":"parks",
    "lat":24.987369537,
    "lon":121.58956146,
    "value":1.0
  },
  {
    "name":"萬壽3號公園",
    "category":"parks",
    "lat":24.985420227,
    "lon":121.58608246,
    "value":1.0
  },
  {
    "name":"萬興櫻花生態景觀公園",
    "category":"parks",
    "lat":24.9915411,
    "lon":121.5731031,
    "value":1.0
  },
  {
    "name":"試院公園",
    "category":"parks",
    "lat":24.987789154,
    "lon":121.5473175,
    "value":1.0
  },
  {
    "name":"福興公園",
    "category":"parks",
    "lat":25.00399971,
    "lon":121.54815674,
    "value":1.0
  },
  {
    "name":"樟林公園",
    "category":"parks",
    "lat":24.984640121,
    "lon":121.55921173,
    "value":1.0
  },
  {
    "name":"樟新公園",
    "category":"parks",
    "lat":24.979190826,
    "lon":121.55695343,
    "value":1.0
  },
  {
    "name":"樟樹公園",
    "category":"parks",
    "lat":24.982719421,
    "lon":121.55937195,
    "value":1.0
  },
  {
    "name":"樟興公園",
    "category":"parks",
    "lat":24.980670929,
    "lon":121.55412292,
    "value":1.0
  },
  {
    "name":"興旺公園",
    "category":"parks",
    "lat":25.005840302,
    "lon":121.55046082,
    "value":1.0
  },
  {
    "name":"興家公園",
    "category":"parks",
    "lat":24.994729996,
    "lon":121.56082153,
    "value":1.0
  },
  {
    "name":"興泰公園",
    "category":"parks",
    "lat":25.004810333,
    "lon":121.55548096,
    "value":1.0
  },
  {
    "name":"興隆公園",
    "category":"parks",
    "lat":25.000139236,
    "lon":121.55108643,
    "value":1.0
  },
  {
    "name":"興福公園",
    "category":"parks",
    "lat":24.997119904,
    "lon":121.5459671,
    "value":1.0
  },
  {
    "name":"興德綠色步道",
    "category":"parks",
    "lat":24.99477005,
    "lon":121.55953979,
    "value":1.0
  },
  {
    "name":"興豐公園",
    "category":"parks",
    "lat":25.000190735,
    "lon":121.55126953,
    "value":1.0
  },
  {
    "name":"文山50號綠地",
    "category":"parks",
    "lat":24.990789413,
    "lon":121.5750885,
    "value":1.0
  },
  {
    "name":"文山木柵60號綠地",
    "category":"parks",
    "lat":25.000429153,
    "lon":121.58325195,
    "value":1.0
  },
  {
    "name":"木柵14號綠地",
    "category":"parks",
    "lat":24.991630554,
    "lon":121.55152893,
    "value":1.0
  },
  {
    "name":"木柵17號(秀明綠地)",
    "category":"parks",
    "lat":24.989030838,
    "lon":121.56481171,
    "value":1.0
  },
  {
    "name":"木柵49號綠地",
    "category":"parks",
    "lat":24.993080139,
    "lon":121.57366943,
    "value":1.0
  },
  {
    "name":"指南綠地",
    "category":"parks",
    "lat":24.983009338,
    "lon":121.57967377,
    "value":1.0
  },
  {
    "name":"軍功綠地",
    "category":"parks",
    "lat":25.001279831,
    "lon":121.57267761,
    "value":1.0
  },
  {
    "name":"清溪綠地",
    "category":"parks",
    "lat":24.985069275,
    "lon":121.58055115,
    "value":1.0
  },
  {
    "name":"景美29號綠地",
    "category":"parks",
    "lat":24.996370316,
    "lon":121.55181885,
    "value":1.0
  },
  {
    "name":"景美30號綠地",
    "category":"parks",
    "lat":25.000749588,
    "lon":121.55519867,
    "value":1.0
  },