[
  {"name": "指南宮步道", "lat": 24.9801, "lon": 121.5734, "category": "noise", "value": 65},
  {"name": "圓山河濱靜謐散步區", "lat": 25.078, "lon": 121.52, "category": "noise", "value": 70},
  {"name": "社子島河岸安靜區", "lat": 25.116, "lon": 121.487, "category": "noise", "value": 72},
  {"name": "象山靜心點", "lat": 24.987, "lon": 121.571, "category": "noise", "value": 68},
  {"name": "劍潭山夜間靜音區", "lat": 25.084, "lon": 121.525, "category": "noise", "value": 66}
]
